indicator,city,country,year,arab_peninsula,latitude,longitude,citypop_le10,citypop_le5,sea,river,hub_3rr,rom_road_nohub,caravan_hub,caravan_nohub,elevation_m,rugg10,bishop,archbishop,capital,university,muslim,me_na,muslim_holy_city,plundered,soilquality,commune,ecozones,free_prince_dls,total_pop_country,dmedina,dmecca,drome,djerusalem,dbyzantium,d_nearest_muslim,d_nearest_christian,fup,musfup,chrfup,musfup_devries,chrfup_devries,distance_nearest_muslim_le10,distance_nearest_christian_le101,nrcities_le10_0_20,citypop_le10_0_20,nrcities_le10_20_50,citypop_le10_20_50,nrcities_le10_50_100,citypop_le10_50_100,size_nearest_le10_mus,size_nearest_le10_chr,nrcities_le10_0_20_mus,citypop_le10_0_20_mus,nrcities_le10_0_20_chr,citypop_le10_0_20_chr,nrcities_le10_20_50_mus,citypop_le10_20_50_mus,nrcities_le10_20_50_chr,citypop_le10_20_50_chr,nrcities_le10_50_100_mus,citypop_le10_50_100_mus,nrcities_le10_50_100_chr,citypop_le10_50_100_chr,parl_act,madrassa01,D_largestate,GranadaEmirate,ottoman
1,Graz,Austria,800,0,47.067001,15.45,0,0,0,1,0,1,0,0,366,103.62,0,0,0,0,0,0,0,0,.414,0,6,0,500,3472.5,3682.3999,649.03003,2679,1628.4,1259.4,135.46001,1.2443,.51871002,.72562999,.99888998,1.5930001,1259.4,428.42001,0,0,0,0,0,0,10,25,0,0,0,0,0,0,0,0,0,0,0,0,0,0,1,0,0
2,Innsbruck,Austria,800,0,47.266998,11.4,0,0,0,1,1,0,0,0,562,559.45001,0,0,0,0,0,0,0,0,.02,0,6,0,500,3861.6001,4060.5,597.13,3080.7,2061.1001,1138.9,37.318001,1.4566,.50107002,.95555001,.95696002,2.0195999,1153,203.69,0,0,0,0,0,0,10,30,0,0,0,0,0,0,0,0,0,0,0,0,0,0,1,0,0
3,Klagenfurt,Austria,800,0,46.625,14.305,0,0,0,1,0,0,0,0,441,99.807999,0,0,0,0,0,0,0,0,.384,0,6,0,500,3551,3755.6001,551.27002,2763.6001,1731.5,1163.8,65.371002,1.3041,.51831001,.78575999,.99510002,1.7121,1163.8,357.25,0,0,0,0,0,0,10,25,0,0,0,0,0,0,0,0,0,0,0,0,0,0,1,0,0
4,Linz,Austria,800,0,48.299999,14.3,0,0,0,1,0,1,0,0,258,141.27,0,0,0,0,0,0,0,0,.66000003,0,4,0,500,3653.3,3864.6001,722.10999,2857.8999,1797.3,1332.3,75.735001,1.2548,.49906,.75569999,.95984,1.6327,1332.3,257.06,0,0,0,0,0,0,10,25,0,0,0,0,0,0,0,0,0,0,0,0,0,0,1,0,0
5,Salzburg,Austria,800,0,47.799999,13.033,0,0,0,1,1,0,0,0,427,208.72,0,1,0,0,0,0,0,0,.32600001,0,6,0,500,3739.7,3945.3999,643.54999,2950.3999,1908.2,1240.7,98.255997,1.369,.49959999,.86938,.95797002,1.8562,1240.7,168.21001,0,0,0,0,0,0,10,25,0,0,0,0,0,0,0,0,0,0,0,0,0,0,1,0,0
6,Wien (Vienna),Austria,800,0,48.200001,16.367001,0,0,0,1,1,0,0,0,170,51.159,0,0,0,0,0,0,0,0,.97799999,0,4,0,500,3460.5,3677.5,805.44,2660,1583.8,1413.8,61.132999,1.1797,.51109999,.66856003,.98689997,1.4707,1413.8,483.54001,0,0,0,0,0,0,10,25,0,0,0,0,0,0,0,0,0,0,0,0,0,0,1,0,0
7,Aalst (Alost),Belgium,800,0,50.932999,4.033,0,0,0,1,0,0,0,0,17,15.281,0,0,0,0,0,0,0,0,.71799999,0,4,0,300,4772.7998,4967.7002,1368.5,3994.8,2967.5,1019.9,19.684,1.3888,.44632,.94248998,.8502,1.8763,1081,157.82001,0,0,0,0,0,0,28,10,0,0,0,0,0,0,0,0,0,0,0,0,0,0,1,0,0
8,"Antwerpen (Anvers, Antwerp)",Belgium,800,0,51.216999,4.4169998,0,0,1,1,0,0,0,0,3,4.1150999,0,0,0,0,0,0,0,0,.56300002,0,4,0,300,4751.7998,4948.6001,1362.6,3971.1001,2937.7,1060.3,19.459,1.3480999,.44273999,.90533,1.3893,3.0587001,1128.2,203.74001,0,0,0,0,0,0,28,10,0,0,0,0,0,0,0,0,0,0,0,0,0,0,1,0,0
9,Brugge (bruges),Belgium,800,0,51.216999,3.233,0,0,1,1,0,0,0,0,2,3.1619,0,0,0,0,0,0,0,0,.70499998,0,4,0,300,4866,5060.1001,1454.2,4088.7,3062.2,1038.8,34.513,1.2932,.44148999,.85166001,1.3844,2.8728001,1079.2,188.44,0,0,0,0,0,0,28,10,0,0,0,0,0,0,0,0,0,0,0,0,0,0,1,0,0
10,Bruxelles (brussels),Belgium,800,0,50.833,4.3330002,0,0,0,0,0,1,0,0,62,29.416,0,0,0,0,0,0,0,0,.71799999,0,4,0,300,4738.3999,4933.6001,1337.5,3960,2932.3,1015.9,27.125999,1.4203,.44795001,.97236001,.50994003,1.1219,1084.7,160.72,0,0,0,0,0,0,28,10,0,0,0,0,0,0,0,0,0,0,0,0,0,0,1,0,0
11,"Gent (Gand, Ghent)",Belgium,800,0,51.049999,3.717,0,0,0,1,0,0,0,0,4,6.7860999,0,0,0,0,0,0,0,0,.86699998,0,4,0,300,4809.3999,5003.8999,1402.2,4031.5,3004.5,1027.1,29.474001,1.3507,.44437,.90634,.84657001,1.8056999,1080.1,164.81,0,0,0,0,0,0,28,10,0,0,0,0,0,0,0,0,0,0,0,0,0,0,1,0,0
12,Ieper (Ypres),Belgium,800,0,50.849998,2.8829999,0,0,0,1,0,1,0,0,19,15.875,0,0,0,0,0,0,0,0,.493,0,4,0,300,4879.2998,5071.2002,1454.3,4105,3085.5,994.54999,32.338001,1.3408,.44650999,.89431,.85001999,1.7768,1028.1,164.41,0,0,0,0,0,0,28,10,0,0,0,0,0,0,0,0,0,0,0,0,0,0,1,0,0
13,Kortrijk (Courtrai),Belgium,800,0,50.833,3.267,0,0,0,1,1,0,0,0,15,11.939,0,0,0,0,0,0,0,0,.42199999,0,4,0,300,4840.5,5033.2002,1420.9,4065.2,3043.7,996.17999,18.110001,1.3728,.44712999,.92563999,.85124999,1.8329999,1039.7,145.34,0,0,0,0,0,0,28,10,0,0,0,0,0,0,0,0,0,0,0,0,0,0,1,0,0
14,"Leuven (Loewen, Louvain)",Belgium,800,0,50.882999,4.6999998,0,0,0,1,0,0,0,0,35,25.507999,0,0,0,0,0,0,0,0,.69499999,0,4,0,300,4705.7002,4901.8999,1313.7,3926,2895.3999,1031.2,30.541,1.4233,.44757,.97574002,.85284001,1.9565001,1107.9,188.72,0,0,0,0,0,0,28,10,0,0,0,0,0,0,0,0,0,0,0,0,0,0,1,0,0
15,"Liege (Luik, Luettich)",Belgium,800,0,50.632999,5.5669999,0,0,0,1,0,0,0,0,64,59.521999,1,0,0,0,0,0,0,0,.708,0,4,0,300,4608.2998,4805.6001,1229.6,3827.3999,2794.8999,1034.5,27.278,1.5438,.45163,1.0922,.86071998,2.2068999,1131.6,153.02,0,0,0,0,0,0,28,15,0,0,0,0,0,0,0,0,0,0,0,0,0,0,1,0,0
16,Lier,Belgium,800,0,51.132999,4.5669999,0,0,0,1,0,0,0,0,3,3.789,0,0,0,0,0,0,0,0,.21799999,0,4,0,300,4732.2998,4929.2002,1344,3951.7,2918.6001,1054.5,15.72,1.3707,.44409999,.92658001,.84658003,1.862,1126.3,202.97,0,0,0,0,0,0,28,10,0,0,0,0,0,0,0,0,0,0,0,0,0,0,1,0,0
17,Lokeren,Belgium,800,0,51.099998,3.983,0,0,0,1,0,0,0,0,3,2.0285001,0,0,0,0,0,0,0,0,.86699998,0,4,0,300,4787.2002,4982.5,1386,4008.3999,2979.1001,1037.4,18.42,1.3522,.44391999,.90824002,.84591001,1.8142999,1096.2,174.62,0,0,0,0,0,0,28,10,0,0,0,0,0,0,0,0,0,0,0,0,0,0,1,0,0
18,Mechelen (Malines),Belgium,800,0,51.033001,4.467,0,0,0,1,0,0,0,0,4,5.2069001,0,0,0,0,0,0,0,0,.56300002,0,4,0,300,4736.2998,4932.5,1343.2,3956.3999,2925.2,1041.1,15.72,1.3849,.44534001,.93957001,.84873003,1.8831,1111.4,187.73,0,0,0,0,0,0,28,10,0,0,0,0,0,0,0,0,0,0,0,0,0,0,1,0,0
19,Mons (Bergen),Belgium,800,0,50.450001,3.9330001,0,0,0,1,0,0,0,0,30,28.201,0,0,0,0,0,0,0,0,.81099999,0,4,0,300,4755.7998,4948.5,1338.6,3980.6001,2960.5,965.41998,45.896999,1.5132999,.45308,1.0602,.86211002,2.0764,1027.8,103.67,0,0,0,0,0,0,28,10,0,0,0,0,0,0,0,0,0,0,0,0,0,0,1,0,0
20,Namur (Namen),Belgium,800,0,50.466999,4.8670001,0,0,0,1,0,0,0,0,120,38.728001,0,0,0,0,0,0,0,0,.66900003,0,4,0,300,4666.2998,4861.3999,1267.3,3888.2,2862.3,992.66998,49.266998,1.5140001,.45328,1.0608,.86308002,2.1206999,1076.7,164.57001,0,0,0,0,0,0,28,20,0,0,0,0,0,0,0,0,0,0,0,0,0,0,1,0,0
21,Ostende,Belgium,800,0,51.216999,2.9170001,0,0,1,1,0,0,0,0,2,.63797998,0,0,0,0,0,0,0,0,.67833,0,4,0,300,4895.8999,5089.2998,1479,4119.5,3094.7,1035.9,34.513,1.2752,.44115001,.83408999,1.3832,2.8217001,1068.8,199.27,0,0,0,0,0,0,28,10,0,0,0,0,0,0,0,0,0,0,0,0,0,0,1,0,0
22,St-Niklaas,Belgium,800,0,51.167,4.1329999,0,0,0,0,0,0,0,0,13,8.0283003,0,0,0,0,0,0,0,0,.56300002,0,4,0,300,4776.7002,4972.7002,1380.2,3997.1001,2966.1001,1048.2,18.42,1.3451,.44310999,.90193999,.50452,1.0427001,1109.9,186.57001,0,0,0,0,0,0,28,10,0,0,0,0,0,0,0,0,0,0,0,0,0,0,1,0,0
23,Tournai (Doornik),Belgium,800,0,50.599998,3.3829999,0,0,0,1,1,0,0,0,41,15.345,1,0,0,0,0,0,0,0,.42199999,0,4,0,300,4817.2002,5009.2998,1394.5,4042.8,3023.8,972.22998,28.344999,1.438,.45059001,.98746002,.85742003,1.9396,1019.9,117.53,0,0,0,0,0,0,28,10,0,0,0,0,0,0,0,0,0,0,0,0,0,0,1,0,0
24,Verviers,Belgium,800,0,50.583,5.8670001,0,0,0,1,0,0,0,0,250,53.455002,0,0,0,0,0,0,0,0,.708,0,4,0,300,4576.8999,4774.7002,1204.4,3795.3,2761.7,1041.6,33.139999,1.6059999,.45254001,1.1533999,.86260003,2.3355999,1145.1,124.89,0,0,0,0,0,0,28,15,0,0,0,0,0,0,0,0,0,0,0,0,0,0,1,0,0
25,Ceske Budejovice (Budweis),Czech rep.,800,0,48.983002,14.467,0,0,0,1,0,0,0,0,374,45.979,0,0,0,0,0,0,0,0,.31099999,0,4,0,1000,3680.3999,3894.7,797.83002,2882,1810.6,1407.8,75.735001,1.2201999,.49228001,.72792,.94770002,1.572,1407.8,263.89001,0,0,0,0,0,0,10,25,0,0,0,0,0,0,0,0,0,0,0,0,0,0,0,0,0
26,Jihlava (Iglau),Czech rep.,800,0,49.400002,15.583,0,0,0,0,0,0,0,0,514,51.088001,0,0,0,0,0,0,0,0,.398,0,4,0,1000,3608.1001,3827.1001,880.39001,2805.8,1721.1,1493.1,68.375999,1.1553,.49327001,.66205001,.56371999,.79636002,1493.1,389.60001,0,0,0,0,0,0,10,25,0,0,0,0,0,0,0,0,0,0,0,0,0,0,0,0,0
27,Kutna Hora (Kuttenberg),Czech rep.,800,0,49.950001,15.267,0,0,0,0,0,0,0,0,247,71.268997,0,0,0,0,0,0,0,0,.75400001,0,4,0,1000,3671.3999,3891.3,923.71002,2868.3,1780,1535.7,68.375999,1.1426001,.48568001,.65695,.55500001,.78873003,1535.7,366.97,0,0,0,0,0,0,10,25,0,0,0,0,0,0,0,0,0,0,0,0,0,0,0,0,0
28,Liberec (Reichenberg),Czech rep.,800,0,50.783001,15.05,0,0,0,1,0,0,0,0,372,133.25,0,0,0,0,0,0,0,0,.33500001,0,4,0,1000,3745.3999,3967.5,1001.8,2940.8999,1846.3,1612,42.303001,1.1124001,.47575,.63665998,.91795999,1.3792,1612,379.64999,0,0,0,0,0,0,10,25,0,0,0,0,0,0,0,0,0,0,0,0,0,0,0,0,0
29,Olomouc (Olmuetz),Czech rep.,800,0,49.583,17.25,0,0,0,1,0,0,0,0,250,19.854,0,0,0,0,0,0,0,0,.69800001,0,4,0,1000,3473.8999,3698.2,982.04999,2668.3,1570.5,1589.6,80.014,1.1155,.50120997,.61426997,.96990001,1.3536,1589.6,576.52002,0,0,0,0,0,0,10,25,0,0,0,0,0,0,0,0,0,0,0,0,0,0,0,0,0
30,Plzen (Pilsen),Czech rep.,800,0,49.75,13.367,0,0,0,1,0,0,0,0,307,36.569,0,0,0,0,0,0,0,0,.48500001,0,4,0,1000,3828.3999,4042.3999,857.51001,3030,1957.1,1455.1,126.73,1.2747999,.47909999,.79566002,.92123997,1.6950999,1455.1,162.10001,0,0,0,0,0,0,10,25,0,0,0,0,0,0,0,0,0,0,0,0,0,0,0,0,0
31,"Praha (Prag, Prague)",Czech rep.,800,0,50.083,14.467,0,0,0,1,0,0,0,0,245,35.583,0,0,0,0,0,0,0,0,.93800002,0,4,0,1000,3750.8,3969,912.82001,2948.8999,1864.6,1520.8,90.156998,1.1688,.48036,.68847001,.92556,1.4845999,1520.8,287.76001,0,0,0,0,0,0,10,25,0,0,0,0,0,0,0,0,0,0,0,0,0,0,0,0,0
32,"Kobenhaven (Copenhagen, Kopenhagen)",Denmark,800,0,55.667,12.583,0,0,1,0,0,0,0,0,0,7.6773,0,0,0,0,0,0,0,0,.77200001,0,4,0,320,4291.7002,4521.7002,1496.4,3484,2372.8999,1901.8,159.58,.92356002,.41716999,.50639999,1.3207,2.1956,2046.8,725.20001,0,0,0,0,0,0,28,25,0,0,0,0,0,0,0,0,0,0,0,0,0,0,1,0,0
33,Turku (Abbo),Finland,800,0,60.450001,22.283001,0,0,1,1,0,0,0,0,22,12.766,0,0,0,0,0,0,0,0,.30399999,0,5,0,80,3902.3,4158.7998,2249.3,3132.3999,2084.3999,2265.3999,485.25,.78117001,.42032,.36085001,1.3252,1.831,2800.3999,1660.4,0,0,0,0,0,0,20,25,0,0,0,0,0,0,0,0,0,0,0,0,0,0,0,0,0
34,Abbeville,France,800,0,50.099998,1.8329999,0,0,0,1,0,0,0,0,7,30.320999,0,0,0,0,0,0,0,0,.96200001,0,4,0,5000,4941,5127.6001,1491.2,4174.2002,3171.3,897.26001,56.860001,1.4225,.45774001,.96477997,.86966002,1.9237,918,111.95,0,0,0,0,0,0,28,10,0,0,0,0,0,0,0,0,0,0,0,0,0,0,1,0,0
35,Agen,France,800,0,44.200001,.63300002,0,0,0,1,0,1,0,0,47,44.387001,1,0,0,0,0,0,0,0,.99900001,0,4,0,5000,4778.8999,4936.8999,1343.5,4062.2,3173.2,247.91,26.462,1.2682,.65350002,.61467999,1.1849999,1.2763,247.91,267.06,0,0,0,0,0,0,28,10,0,0,0,0,0,0,0,0,0,0,0,0,0,0,1,0,0
36,Aix,France,800,0,43.533001,5.4330001,0,0,0,1,1,0,0,0,181,83.157997,0,1,0,0,0,0,0,1,.96899998,0,2,0,5000,4258.3999,4424,805.07001,3530.6001,2634,396.13,25.709999,1.2692,.56704998,.70218003,1.0588,1.4768,613.15997,254.49001,0,0,0,0,0,0,28,12,0,0,0,0,0,0,0,0,0,0,0,0,0,0,1,0,0
37,Albi,France,800,0,43.932999,2.1500001,0,0,0,1,0,0,0,0,169,46.123001,1,0,0,0,0,0,0,0,.78500003,0,4,0,5000,4611.1001,4771.2002,1171.6,3891.7,3001.8,222.78,38.362999,1.2646,.62239999,.64222002,1.1382999,1.3357,308.70001,357.84,0,0,0,0,0,0,28,10,0,0,0,0,0,0,0,0,0,0,0,0,0,0,1,0,0
38,Alencon,France,800,0,48.432999,.082999997,0,0,0,1,0,1,0,0,134,37.987,0,0,0,0,0,0,0,0,.80599999,0,4,0,5000,5028.7998,5204.7998,1557.5,4278.5,3311.5,652.85999,49.701,1.3706,.49079999,.87984997,.92830002,1.7838,712.53998,134.63,0,0,0,0,0,0,28,20,0,0,0,0,0,0,0,0,0,0,0,0,0,0,1,0,0
39,Amiens,France,800,0,49.900002,2.3,0,0,0,1,1,0,0,0,25,27.011999,1,0,0,0,0,0,0,0,.97600001,0,4,0,5000,4884.3999,5071.2998,1436.1,4117.3999,3114.8,886.63,56.860001,1.5282,.46127,1.0669,.87590998,2.1046,908.63,114.63,0,0,0,0,0,0,28,25,0,0,0,0,0,0,0,0,0,0,0,0,0,0,1,0,0
40,Angers,France,800,0,47.466999,-.55000001,0,0,0,1,1,0,0,0,39,12.215,0,0,0,0,0,0,0,0,.55299997,0,4,0,5000,5045.8999,5216.2998,1575.8,4304.7998,3357.5,531.37,56.866001,1.3439,.51583999,.82805997,.97267997,1.6883,610.34998,137.3,0,0,0,0,0,0,28,20,0,0,0,0,0,0,0,0,0,0,0,0,0,0,1,0,0
41,Arles,France,800,0,43.667,4.6329999,0,0,0,1,1,0,0,0,8,11.318,1,0,0,0,0,0,0,0,.83499998,0,2,0,5000,4346.1001,4510.5,895.37,3620,2724.2,328.01001,15.097,1.2691,.57380003,.69529998,1.0684,1.456,533.15002,232.07001,0,0,0,0,0,0,28,12,0,0,0,0,0,0,0,0,0,0,0,0,0,0,1,0,0
42,Arras (Atrecht),France,800,0,50.283001,2.783,0,0,0,1,1,0,0,0,86,15.362,0,0,0,0,0,0,0,0,.95499998,0,4,0,5000,4857.8999,5047.3999,1420.9,4087.2,3076.3,930.59003,33.800999,1.4675,.45517999,1.0123,.86532003,1.9858,964.34003,122.37,0,0,0,0,0,0,28,10,0,0,0,0,0,0,0,0,0,0,0,0,0,0,1,0,0
43,Auch,France,800,0,43.650002,.583,0,0,0,1,1,0,0,0,133,34.213001,1,0,0,0,0,0,0,0,.89499998,0,4,0,5000,4760.8999,4916.2002,1338.9,4049.7,3173,187.17999,61.480999,1.2858,.70556003,.58026999,1.257,1.21,187.17999,327.37,0,0,0,0,0,0,28,10,0,0,0,0,0,0,0,0,0,0,0,0,0,0,1,0,0
44,Auxerre,France,800,0,47.799999,3.5669999,0,0,0,1,1,0,0,0,100,42.674999,1,0,0,0,0,0,0,0,.986,0,4,0,5000,4650.2002,4831.3999,1185.8,3893,2917.3,669,79.427002,1.6072,.49750999,1.1097,.93905997,2.1602001,747.51001,88.602997,0,0,0,0,1,10,28,10,0,0,0,0,0,0,0,0,0,0,1,10,0,0,1,0,0
45,Avignon,France,800,0,43.950001,4.8169999,0,0,0,1,0,1,0,0,21,23.388,1,0,0,0,0,0,0,0,.83499998,0,2,0,5000,4339.3999,4505.6001,882.09003,3609.8,2706.3999,363.64999,23.576,1.2866,.56590998,.72068,1.0556,1.5062,564.09998,199.71001,0,0,0,0,0,0,28,12,0,0,0,0,0,0,0,0,0,0,0,0,0,0,1,0,0
46,Bar-le-duc,France,800,0,48.783001,5.1669998,0,0,0,1,0,1,0,0,214,40.966,0,0,0,0,0,0,0,0,.95200002,0,4,0,5000,4544.5,4733.5,1111,3775.3,2773.1001,827.46997,91.040001,1.7047,.47775999,1.2269,.90630001,2.4540999,937.02002,117.89,0,0,0,0,0,0,28,25,0,0,0,0,0,0,0,0,0,0,0,0,0,0,1,0,0
47,Bastia,France,800,0,42.702999,9.4499998,0,0,1,0,0,0,0,0,1,308.45001,0,0,0,0,0,0,0,0,.44499999,0,4,0,5000,3813.3999,3985,348.48001,3077.5,2180.3,652.31,134.42999,1.3764,.56577998,.81062001,1.7733001,3.4607,652.31,347.20999,0,0,0,0,0,0,10,30,0,0,0,0,0,0,0,0,0,0,0,0,0,0,1,0,0
48,Bayeux,France,800,0,49.266998,-.69999999,0,0,0,1,1,0,0,0,55,20.870001,1,0,0,0,0,0,0,0,.97799999,0,4,0,5000,5148.2002,5325.8999,1678.2,4394.5,3418,725.35999,40.233002,1.1914999,.47137001,.72008997,.89493001,1.4692,811.29999,171.60001,0,0,0,0,0,0,28,10,0,0,0,0,0,0,0,0,0,0,0,0,0,0,1,0,0
49,Bayonne,France,800,0,43.483002,-1.483,0,0,0,1,0,1,0,0,6,26.767,0,0,0,0,0,0,0,0,.96100003,0,4,0,5000,4967.6001,5117.7002,1564,4265,3400.2,75.325996,58.444,1.2128,.71166003,.50111997,1.3027,1.0495,241.21001,399.62,0,0,0,0,0,0,28,10,0,0,0,0,0,0,0,0,0,0,0,0,0,0,1,0,0
50,Beauvais,France,800,0,49.432999,2.0829999,0,0,0,1,1,0,0,0,65,28.098,0,0,0,0,0,0,0,0,.99000001,0,4,0,5000,4881.2002,5065.7002,1424.8,4117.7998,3123.7,834.59998,57.740002,1.7095,.46950001,1.24,.89030999,2.4523001,851.78998,68.234001,0,0,0,0,1,25,28,25,0,0,0,0,0,0,0,0,0,0,1,25,0,0,1,0,0
51,Besancon,France,800,0,47.25,6.033,0,0,0,1,1,0,0,0,262,75.000999,0,1,0,0,0,0,0,0,.89200002,0,4,0,5000,4379.2998,4564,927.81,3617.5,2636.8,725.21997,112.71,1.4953001,.50007999,.99523997,.94590998,2.0353999,876.31,208.7,0,0,0,0,0,0,28,25,0,0,0,0,0,0,0,0,0,0,0,0,0,0,1,0,0
52,Beziers,France,800,0,43.349998,3.25,0,0,0,1,1,0,0,0,53,28.462,0,0,0,0,0,0,0,0,.995,0,4,0,5000,4473.2998,4632.8999,1039.9,3755.5,2874,193.21001,33.641998,1.2471,.60816997,.63891,1.1204,1.337,377.13,320.57001,0,0,0,0,0,0,28,12,0,0,0,0,0,0,0,0,0,0,0,0,0,0,1,0,0
53,Blois,France,800,0,47.583,1.3329999,0,0,0,1,1,0,0,0,70,16.656,1,0,0,0,0,0,0,0,.86799997,0,4,0,5000,4862.2002,5037.2998,1390.6,4114.1001,3155,623.98999,73.883003,1.6018,.50963002,1.0922,.95946997,2.1975,632.10999,75.711998,0,0,0,0,1,20,28,20,0,0,0,0,0,0,0,0,0,0,1,20,0,0,1,0,0
54,Bordeaux,France,800,0,44.833,-.56699997,0,0,1,1,1,0,0,0,9,19.974001,1,0,0,0,0,0,0,0,.204,0,4,0,5000,4929.2002,5087.7002,1488.5,4210.6001,3313.6001,252.95,121.49,1.2289,.62221003,.60664999,1.8614,2.2549,321.32001,219.08,0,0,0,0,0,0,28,10,0,0,0,0,0,0,0,0,0,0,0,0,0,0,1,0,0
55,Bourges,France,800,0,47.083,2.4000001,0,0,0,1,1,0,0,0,140,12.206,0,1,0,0,0,0,0,0,.70700002,0,4,0,5000,4730.7998,4906.1001,1259.2,3982.8999,3027,573.13,46.821999,1.4671,.51754999,.94954002,.97245997,1.9045,616.25,191.72,0,0,0,0,0,0,28,10,0,0,0,0,0,0,0,0,0,0,0,0,0,0,1,0,0
56,Brest,France,800,0,48.400002,-4.4829998,0,0,1,0,0,1,0,0,76,22.931,0,0,0,0,0,0,0,0,.4253,0,4,0,5000,5486.6001,5652.8999,2020.5,4750.8999,3806.8,654.57001,143.12,.92798001,.47703001,.45095,1.5103,1.7381999,874.84003,313.75,0,0,0,0,0,0,28,10,0,0,0,0,0,0,0,0,0,0,0,0,0,0,0,0,0
57,Caen,France,800,0,49.182999,-.34999999,0,0,0,1,0,1,0,0,5,20.785,0,0,0,0,0,0,0,0,.95999998,0,4,0,5000,5108.7998,5287,1639.2,4354.7002,3377.8,722.15002,35.363998,1.2381999,.47376999,.76447999,.89884001,1.5556,797.81,161.62,0,0,0,0,0,0,28,10,0,0,0,0,0,0,0,0,0,0,0,0,0,0,1,0,0
58,Cahors,France,800,0,44.432999,1.433,0,0,0,1,1,0,0,0,181,50.327999,1,0,0,0,0,0,0,0,.99900001,0,4,0,5000,4706.6001,4867.5,1261.5,3984.8999,3087.3999,292.78,46.493,1.2749,.61936998,.65556002,1.1334,1.3576,303.85001,268.84,0,0,0,0,0,0,28,10,0,0,0,0,0,0,0,0,0,0,0,0,0,0,1,0,0
59,Cambrai,France,800,0,50.167,3.233,0,0,0,1,1,0,0,0,58,20.193001,0,1,0,0,0,0,0,0,.93099999,0,4,0,5000,4808.2002,4998.2998,1374.9,4036.7,3024.8,922.78003,28.488001,1.5663,.45705,1.1093,.86875999,2.1389,969.26001,79.57,0,0,0,0,1,10,28,10,0,0,0,0,0,0,0,0,0,0,1,10,0,0,1,0,0
60,Carcassonne,France,800,0,43.216999,2.3499999,0,0,0,1,0,1,0,0,100,61.077999,1,0,0,0,0,0,0,0,.95999998,0,4,0,5000,4560.2998,4717.2998,1137.1,3847.2,2972.8,143.92999,43.713001,1.2522,.64424998,.60797,1.1722,1.272,280.41,395.57001,0,0,0,0,0,0,28,12,0,0,0,0,0,0,0,0,0,0,0,0,0,0,1,0,0
61,Castres,France,800,0,43.599998,2.25,0,0,0,1,0,0,0,0,185,63.580002,0,0,0,0,0,0,0,0,.78500003,0,4,0,5000,4586.7002,4745.2998,1154.2,3870.1001,2987.3,185.78,38.362999,1.2586,.63292998,.62562001,1.1545,1.3049001,293.67001,375.29999,0,0,0,0,0,0,28,12,0,0,0,0,0,0,0,0,0,0,0,0,0,0,1,0,0
62,Chalons-sur-Marne,France,800,0,48.950001,4.3670001,0,0,0,1,1,0,0,0,83,19.143999,1,0,0,0,0,0,0,0,.92900002,0,4,0,5000,4631.5,4819.3999,1190.4,3863.8999,2863.8999,815.10999,50.422001,1.9119999,.47589001,1.4361,.90236002,2.8074999,902.87,50.422001,0,0,0,0,1,20,28,20,0,0,0,0,0,0,0,0,0,0,1,20,0,0,1,0,0
63,Chalon-sur-saone,France,800,0,46.783001,4.8499999,0,0,0,1,1,0,0,0,175,9.7110004,1,0,0,0,0,0,0,0,.98400003,0,4,0,5000,4471.7998,4651.5,1004.8,3717.6001,2753.2,611.69,53.294998,1.4832,.51165998,.97149003,.96429998,1.9736,745.04999,114.26,0,0,0,0,0,0,28,12,0,0,0,0,0,0,0,0,0,0,0,0,0,0,1,0,0
64,Chambery,France,800,0,45.599998,5.9000001,0,0,0,0,1,0,0,0,342,335.26001,1,0,0,0,0,0,0,0,.85299999,0,6,0,5000,4308.6001,4485.5,837.72998,3560.1001,2613.3,575.46997,51.671001,1.405,.52741998,.87755001,.59841001,1.0274,755.02002,118.07,0,0,0,0,0,0,28,12,0,0,0,0,0,0,0,0,0,0,0,0,0,0,1,0,0
65,Chartres,France,800,0,48.450001,1.5,0,0,0,1,1,0,0,0,148,9.7495003,1,0,0,0,0,0,0,0,.53100002,0,4,0,5000,4888.2998,5067.5,1420,4133.2998,3158.3,717.08002,73.903,1.6012,.48923999,1.1119,.92460001,2.2219,730.75,103.55,0,0,0,0,0,0,28,25,0,0,0,0,0,0,0,0,0,0,0,0,0,0,1,0,0
66,Cherbourg,France,800,0,49.650002,-1.65,0,0,1,0,0,1,0,0,9,48.696999,0,0,0,0,0,0,0,0,.80203998,0,4,0,5000,5261.7002,5438.8999,1791.3,4508.3999,3531,760.08002,113.91,1.0771,.46132001,.61583,1.4471999,2.2107999,871.08002,174.75,0,0,0,0,0,0,28,10,0,0,0,0,0,0,0,0,0,0,0,0,0,0,1,0,0
67,Clermont-Ferrand,France,800,0,45.783001,3.0829999,0,0,0,0,1,0,0,0,391,188.67,1,0,0,0,0,0,0,0,.69599998,0,4,0,5000,4600.1001,4771.1001,1130.5,3860.3999,2926.1001,438.01001,14.064,1.3598,.54483002,.81496,.61669999,.94945002,531.03003,197.08,0,0,0,0,0,0,28,12,0,0,0,0,0,0,0,0,0,0,0,0,0,0,1,0,0
68,Colmar,France,800,0,48.083,7.3670001,0,0,0,0,0,0,0,0,187,21.43,0,0,0,0,0,0,0,0,.38999999,0,4,0,5000,4293,4484.6001,884.65997,3520.8999,2516.3,888.87,54.162998,1.6025,.48644999,1.1160001,.55342001,1.2999001,1049.2,176.98,0,0,0,0,0,0,28,25,0,0,0,0,0,0,0,0,0,0,0,0,0,0,1,0,0
69,Dieppe,France,800,0,49.932999,1.0829999,0,0,1,1,1,0,0,0,7,33.619999,0,0,0,0,0,0,0,0,.96600002,0,4,0,5000,5005.7002,5189.8999,1547.9,4242.2002,3246,847.03998,55.655998,1.4316,.46029001,.97127998,1.4384,3.1751001,885.78998,55.655998,0,0,0,0,1,10,28,10,0,0,0,0,0,0,0,0,0,0,1,10,0,0,1,0,0
70,Dijon,France,800,0,47.317001,5.0170002,0,0,0,1,1,0,0,0,240,75.471001,1,0,0,0,0,0,0,0,.88599998,0,4,0,5000,4482.3999,4664.8999,1022.2,3723.6001,2747.8999,673.54999,62.814999,1.505,.50159001,1.0035,.94730997,2.0297,801.45001,175.17,0,0,0,0,0,0,28,12,0,0,0,0,0,0,0,0,0,0,0,0,0,0,1,0,0
71,Dinan,France,800,0,48.450001,-2.033,0,0,0,1,0,1,0,0,76,27.198,0,0,0,0,0,0,0,0,.98900002,0,4,0,5000,5241.3999,5412.8999,1770.3,4497.7002,3541.1001,628.04999,21.860001,1.2153,.48737001,.72798002,.92554998,1.4914,753.97998,56.687,0,0,0,0,1,10,28,10,0,0,0,0,0,0,0,0,0,0,1,10,0,0,1,0,0
72,Douai,France,800,0,50.367001,3.0669999,0,0,0,1,0,0,0,0,26,11.957,0,0,0,0,0,0,0,0,.93099999,0,4,0,5000,4834.6001,5025.1001,1403,4062.5,3048.6001,943.03998,28.488001,1.4753,.45390001,1.0214,.86315,1.9960999,984.07001,107.96,0,0,0,0,0,0,28,10,0,0,0,0,0,0,0,0,0,0,0,0,0,0,1,0,0
73,"Dunkerque (Duinkerken, Duenkirchen)",France,800,0,51.049999,2.3670001,0,0,1,0,0,0,0,0,2,.95617002,0,0,0,0,0,0,0,0,.75133002,0,4,0,5000,4939.7002,5131.2002,1511.4,4165.7998,3146.3999,1014.6,24.642,1.2684,.44304001,.82538003,1.3885,2.7908001,1034.4,215.5,0,0,0,0,0,0,28,10,0,0,0,0,0,0,0,0,0,0,0,0,0,0,1,0,0
74,Evreux,France,800,0,49.016998,1.15,0,0,0,1,1,0,0,0,117,25.157,1,0,0,0,0,0,0,0,.977,0,4,0,5000,4951.8999,5132.6001,1486.1,4194.1001,3211.6001,756.40002,46.298,1.6032,.47767001,1.1256,.90469998,2.2567999,786.39001,46.298,0,0,1,10,0,0,28,10,0,0,0,0,0,0,1,10,0,0,0,0,0,0,1,0,0
75,Falaise,France,800,0,48.900002,-.2,0,0,0,0,0,0,0,0,154,44.75,0,0,0,0,0,0,0,0,.94499999,0,4,0,5000,5080,5257.2998,1609.6,4327.2998,3354.1001,695.26001,35.363998,1.2826999,.47999001,.80273002,.54561001,.93186998,765.72998,154.24001,0,0,0,0,0,0,28,10,0,0,0,0,0,0,0,0,0,0,0,0,0,0,1,0,0
76,Grenoble,France,800,0,45.167,5.717,0,0,0,1,1,0,0,0,215,245.22,1,0,0,0,0,0,0,0,.94099998,0,6,0,5000,4305.6001,4480,833.94,3561.5,2625.1001,527.90997,51.671001,1.3836,.53575999,.84780002,1.0064,1.7584,713.51001,116.26,0,0,0,0,0,0,28,12,0,0,0,0,0,0,0,0,0,0,0,0,0,0,1,0,0
77,Hondschoote,France,800,0,50.983002,2.5829999,0,0,0,0,0,0,0,0,5,6.0180998,0,0,0,0,0,0,0,0,.493,0,4,0,5000,4915.5,5107.2002,1488.8,4141.3999,3121.8,1007.3,20.018999,1.2948,.4443,.85049999,.50572997,.98255998,1032.7,194.87,0,0,0,0,0,0,28,10,0,0,0,0,0,0,0,0,0,0,0,0,0,0,1,0,0
78,La Rochelle,France,800,0,46.167,-1.15,0,0,1,0,0,0,0,0,15,7.6479001,1,0,0,0,0,0,0,0,.99800003,0,4,0,5000,5047.1001,5210.6001,1589.1,4318.6001,3397.8999,376.66,33.209999,1.2213,.55932999,.66198999,1.7169,2.375,482.41,170.98,0,0,0,0,0,0,28,10,0,0,0,0,0,0,0,0,0,0,0,0,0,0,1,0,0
79,Laon,France,800,0,49.567001,3.6170001,10,10,0,0,0,0,0,0,80,30.382,1,0,0,0,0,0,0,0,.96399999,0,4,0,5000,4737.8999,4926.5,1298.6,3968.8,2963.5,863.02002,48.145,1.7294,.46649,1.263,.53052002,1.4561,924.46997,57.854,0,0,0,0,1,20,28,20,0,0,0,0,0,0,0,0,0,0,1,20,0,0,1,0,0
80,Laval,France,800,0,48.067001,-.76700002,0,0,0,0,0,1,0,0,58,19.556999,1,0,0,0,0,0,0,0,.96600002,0,4,0,5000,5096.5,5269.1001,1625.1,4351.6001,3395.1001,592.15002,71.142998,1.296,.49941,.79655999,.56734997,.92566001,679.84998,101.32,0,0,0,0,0,0,28,10,0,0,0,0,0,0,0,0,0,0,0,0,0,0,1,0,0
81,Le Havre,France,800,0,49.5,.133,0,0,1,0,0,0,0,0,4,37.481998,0,0,0,0,0,0,0,0,.98000002,0,4,0,5000,5077.2998,5257.7998,1610.9,4319.5,3335.1001,768.97998,40.525002,1.2833,.46768001,.81560999,1.4607,2.7625,831.64001,106.05,0,0,0,0,0,0,28,10,0,0,0,0,0,0,0,0,0,0,0,0,0,0,1,0,0
82,Le Mans,France,800,0,48,.2,0,0,0,1,1,0,0,0,50,20.125999,1,0,0,0,0,0,0,0,.80599999,0,4,0,5000,4995.7998,5170.2002,1524.1,4248.2998,3287.8999,611.56,49.701,1.4689,.50120002,.96766001,.94616997,1.9599,664.69,87.292,0,0,0,0,1,20,28,20,0,0,0,0,0,0,0,0,0,0,1,20,0,0,1,0,0
83,Le Puy (- en Velay),France,800,0,45.029999,3.8800001,0,0,0,0,0,1,0,0,713,105.67,1,0,0,0,0,0,0,0,.35100001,0,4,0,5000,4484.2002,4653.5,1017.6,3748.1001,2825.3,389.48001,72.087997,1.3485,.55432999,.79413998,.62729001,.92866999,534.47998,134.35001,0,0,0,0,0,0,28,12,0,0,0,0,0,0,0,0,0,0,0,0,0,0,1,0,0
84,Lille (Rijssel),France,800,0,50.632999,3.0669999,0,0,0,0,0,1,0,0,25,9.5888004,0,0,0,0,0,0,0,0,.42199999,0,4,0,5000,4848.7998,5040.2998,1422.2,4075.2,3057.6001,971.82001,13.395,1.4048001,.44995001,.95485002,.51204997,1.0979,1011.4,132.77,0,0,0,0,0,0,28,10,0,0,0,0,0,0,0,0,0,0,0,0,0,0,1,0,0
85,Limoges,France,800,0,45.849998,1.25,0,0,0,1,1,0,0,0,298,45.035999,1,0,0,0,0,0,0,0,.54699999,0,4,0,5000,4788.5,4955.6001,1324,4054.6001,3128.3999,443.14999,124.47,1.3665,.56116003,.80537999,1.0443,1.6458,443.14999,130.75,0,0,0,0,0,0,28,10,0,0,0,0,0,0,0,0,0,0,0,0,0,0,1,0,0
86,Lisieux,France,800,0,49.150002,.233,0,0,0,1,1,0,0,0,96,34.452999,1,0,0,0,0,0,0,0,.94,0,4,0,5000,5049.7002,5228.8999,1581.4,4293.8999,3314.3999,734.44,40.525002,1.3354,.47490001,.86052001,.90035999,1.7422,792.75,99.633003,0,0,0,0,1,10,28,10,0,0,0,0,0,0,0,0,0,0,1,10,0,0,1,0,0
87,Luneville,France,800,0,48.599998,6.5,0,0,0,1,0,0,0,0,233,17.757999,0,0,0,0,0,0,0,0,.935,0,4,0,5000,4405.6001,4597.2002,991.95001,3633.2,2625.5,878.53998,34.551998,1.8497,.4795,1.3702,.91078001,2.7825999,1017.6,69.203003,0,0,0,0,1,25,28,25,0,0,0,0,0,0,0,0,0,0,1,25,0,0,1,0,0
88,Lyon,France,800,0,45.75,4.8499999,12,12,0,1,1,0,0,0,175,49.080002,1,0,0,0,0,0,0,0,.81,0,4,0,5000,4420.7998,4595.8999,949.13,3675,2731.3,513.73999,25.611,1.301,.53070998,.77025998,.99655002,1.5882,668.75,355.60999,0,0,0,0,0,0,28,10,0,0,0,0,0,0,0,0,0,0,0,0,0,0,1,0,0
89,Macon,France,800,0,46.299999,4.8330002,0,0,0,1,0,1,0,0,171,41.922001,1,0,0,0,0,0,0,0,.79799998,0,4,0,5000,4449.7998,4627.2998,979.54999,3699.5,2744.7,564.14001,53.294998,1.534,.52051002,1.0135,.97930002,2.0662,706.57001,61.054001,0,0,0,0,1,12,28,12,0,0,0,0,0,0,0,0,0,0,1,12,0,0,1,0,0
90,Marseille,France,800,0,43.299999,5.4000001,0,0,1,0,0,1,0,0,54,111.06,1,0,0,0,0,0,0,0,.92684001,0,2,0,5000,4251.1001,4415.5,803.09998,3525.8,2635.1001,382.28,25.709999,1.2592,.57139999,.68782002,1.7553,2.7354,603.46002,278.48001,0,0,0,0,0,0,28,12,0,0,0,0,0,0,0,0,0,0,0,0,0,0,1,0,0
91,Metz,France,800,0,49.132999,6.1669998,25,25,0,1,1,0,0,0,165,37.356998,1,0,0,0,0,0,0,0,.963,0,4,0,5000,4466.6001,4659.5,1060,3692.1001,2677.8999,910.65002,49.918999,1.5498,.47217,1.0776,.89753997,2.1877999,1036.6,85.602997,0,0,0,0,1,15,28,15,0,0,0,0,0,0,0,0,0,0,1,15,0,0,1,0,0
92,Montauban,France,800,0,44.016998,1.35,0,0,0,1,0,1,0,0,101,28.377001,0,0,0,0,0,0,0,0,.99900001,0,4,0,5000,4697.2002,4855.8999,1261,3979.7,3091.3999,253.23,46.493,1.2704999,.64511001,.62535,1.1709,1.2996,259.85001,306.76999,0,0,0,0,0,0,28,10,0,0,0,0,0,0,0,0,0,0,0,0,0,0,1,0,0
93,Montpellier,France,800,0,43.599998,3.8829999,0,0,0,1,0,0,0,0,25,30.423,0,0,0,0,0,0,0,0,.98400003,0,4,0,5000,4419.6001,4581.8999,975.57001,3697,2806.6001,259.60999,31.455,1.2586,.58750999,.67110002,1.089,1.4032,452.54999,261.95999,0,0,0,0,0,0,28,12,0,0,0,0,0,0,0,0,0,0,0,0,0,0,1,0,0
94,Nancy,France,800,0,48.682999,6.1999998,0,0,0,1,0,0,0,0,200,50.641998,0,0,0,0,0,0,0,0,.935,0,4,0,5000,4439,4630.2002,1021.3,3667.1001,2660,868.79999,34.551998,1.9831001,.47850001,1.5046,.90867001,3.0446,1001.3,49.918999,0,0,1,25,0,0,28,25,0,0,0,0,0,0,1,25,0,0,0,0,0,0,1,0,0
95,Nantes,France,800,0,47.216999,-1.55,0,0,1,1,1,0,0,0,7,13.208,1,0,0,0,0,0,0,0,.63599998,0,4,0,5000,5135.2998,5302.6001,1669,4399.5,3461.5,489.75,96.794998,1.2262,.52262002,.70358002,1.6219,2.4677,607.26001,96.794998,0,0,0,0,1,10,28,10,0,0,0,0,0,0,0,0,0,0,1,10,0,0,1,0,0
96,Narbonne,France,800,0,43.182999,3,0,0,0,1,1,0,0,0,5,40.708,0,1,0,0,0,0,0,0,.99699998,0,4,0,5000,4491.7002,4649.8999,1064.8,3776.6001,2900.3,162.17,33.641998,1.2434,.62036997,.62307,1.1388,1.3051,344.19,351.98999,0,0,0,0,0,0,28,12,0,0,0,0,0,0,0,0,0,0,0,0,0,0,1,0,0
97,Nevers,France,800,0,46.983002,3.1670001,0,0,0,1,1,0,0,0,172,23.403,1,0,0,0,0,0,0,0,.76599997,0,4,0,5000,4648.8999,4825.5,1177.9,3899.1001,2940.8,570.84998,48.93,1.4608001,.51586002,.94493002,.96987998,1.8926001,646.46997,175.11,0,0,0,0,0,0,28,10,0,0,0,0,0,0,0,0,0,0,0,0,0,0,1,0,0
98,Nice,France,800,0,43.700001,7.25,0,0,1,0,0,1,0,0,0,155.86,1,0,0,0,0,0,0,0,.99800003,0,6,0,5000,4081.8999,4252.8999,614.79999,3345.2,2434.3999,539.03998,81.291,1.3001,.55263001,.74747998,1.7177,3.0186999,814.07001,350.56,0,0,0,0,0,0,28,12,0,0,0,0,0,0,0,0,0,0,0,0,0,0,1,0,0
99,Nimes,France,800,0,43.833,4.3499999,0,0,0,0,1,0,0,0,37,52.209,1,0,0,0,0,0,0,0,.80400002,0,2,0,5000,4381.7998,4546.2998,929.70001,3655.2,2757,315.04001,35.780998,1.2744,.57454997,.69986999,.64964002,.82379001,510.69,220.22,0,0,0,0,0,0,28,12,0,0,0,0,0,0,0,0,0,0,0,0,0,0,1,0,0
100,Orleans,France,800,0,47.917,1.9,0,0,0,1,1,0,0,0,120,12.976,1,0,0,0,0,0,0,0,.70999998,0,4,0,5000,4822.1001,4999.8999,1352.1,4069.5,3101.3,667.57001,73.883003,1.5876,.50002003,1.0876,.94295001,2.1675999,684.59003,116.03,0,0,0,0,0,0,28,25,0,0,0,0,0,0,0,0,0,0,0,0,0,0,1,0,0
101,Paris,France,800,0,48.867001,2.3329999,25,25,0,1,1,0,0,0,35,24.823,1,0,0,0,0,0,0,0,.77100003,0,4,0,5000,4827.6001,5010.2998,1366.5,4067,3080.3999,772.07001,23.589001,1.3999,.4797,.92019999,.90805,1.7874,799.71002,113.7,0,0,0,0,0,0,28,10,0,0,0,0,0,0,0,0,0,0,0,0,0,0,1,0,0
102,Perpignan,France,800,0,42.682999,2.8829999,0,0,0,1,0,1,0,0,45,27.493,0,0,0,0,0,0,0,0,.99000001,0,4,0,5000,4483.1001,4638.5,1072.2,3773.7,2909.8999,108.98,57.174999,1.234,.63854003,.59547001,1.1675,1.2517999,314.59,405.44,0,0,0,0,0,0,28,12,0,0,0,0,0,0,0,0,0,0,0,0,0,0,1,0,0
103,Poitiers,France,800,0,46.583,.333,10,10,0,1,1,0,0,0,114,16.783001,1,0,0,0,0,0,0,0,.97399998,0,4,0,5000,4915.2998,5083.7998,1448,4178.5,3242.8999,472.01999,89.356003,1.3549,.54171002,.81316,1.0144,1.6588,507.04001,97.211998,0,0,0,0,1,20,28,20,0,0,0,0,0,0,0,0,0,0,1,20,0,0,1,0,0
104,Provins,France,800,0,48.549999,3.3,10,10,0,0,0,0,0,0,152,37.235001,0,0,0,0,0,0,0,0,.82200003,0,4,0,5000,4715.3999,4899.1001,1257.4,3953.8,2966.8,745.35999,88.602997,1.6461999,.4842,1.1619999,.55013001,1.3408999,806.75,112.49,0,0,0,0,0,0,28,20,0,0,0,0,0,0,0,0,0,0,0,0,0,0,1,0,0
105,Reims,France,800,0,49.25,4.033,20,20,0,1,1,0,0,0,83,25.599001,0,1,0,0,0,0,0,0,.92500001,0,4,0,5000,4680.7998,4869,1240.8,3912.3,2909.6001,837.46997,50.422001,1.5814,.47138,1.11,.89428997,2.0755999,912.97998,57.854,0,0,0,0,1,10,28,10,0,0,0,0,0,0,0,0,0,0,1,10,0,0,1,0,0
106,Rennes,France,800,0,48.083,-1.683,10,10,0,1,1,0,0,0,30,11.874,1,0,0,0,0,0,0,0,.98900002,0,4,0,5000,5188.6001,5359.2998,1718.1,4446.5,3494.3999,585.38,56.687,1.0836999,.49777001,.58591002,.94347,1.2068,702.96002,274.04999,0,0,0,0,0,0,28,20,0,0,0,0,0,0,0,0,0,0,0,0,0,0,1,0,0
107,Riom,France,800,0,45.900002,3.1170001,0,0,0,0,0,0,0,0,329,76.889,0,0,0,0,0,0,0,0,.69599998,0,4,0,5000,4601.7002,4773.3999,1131.4,3860.8999,2923.8999,451.98999,14.064,1.3688999,.54141998,.82744998,.61299002,.96338999,544.28998,193.32001,0,0,0,0,0,0,28,12,0,0,0,0,0,0,0,0,0,0,0,0,0,0,1,0,0
108,Rochefort,France,800,0,45.939999,-.95999998,0,0,1,1,0,0,0,0,3,5.9013,0,0,0,0,0,0,0,0,.99900001,0,4,0,5000,5017.5,5180.2998,1561.5,4290.2998,3373.1001,355.17999,33.209999,1.2332,.56849998,.66473001,1.7383,2.3886001,451.89001,160.32001,0,0,0,0,0,0,28,10,0,0,0,0,0,0,0,0,0,0,0,0,0,0,1,0,0
109,Rouen,France,800,0,49.432999,1.0829999,10,10,0,1,1,0,0,0,9,55.116001,0,1,0,0,0,0,0,0,.977,0,4,0,5000,4979.7998,5162,1517,4219.5,3230.8999,795.27002,46.298,1.3198,.46959001,.8502,.89060003,1.7082,830.56,152.48,0,0,0,0,0,0,28,25,0,0,0,0,0,0,0,0,0,0,0,0,0,0,1,0,0
110,Saumur,France,800,0,47.266998,-.082999997,0,0,0,1,0,1,0,0,25,20.976,0,0,0,0,0,0,0,0,.85900003,0,4,0,5000,4989,5159.7002,1518.9,4248,3301.8,524.54999,56.866001,1.4871,.52126998,.96585,.98100001,1.9622,583.84003,85.492996,0,0,0,0,2,30,28,20,0,0,0,0,0,0,0,0,0,0,2,30,0,0,1,0,0
111,Sedan,France,800,0,49.700001,4.9499998,0,0,0,1,0,0,0,0,183,73.580002,0,0,0,0,0,0,0,0,.73699999,0,4,0,5000,4615.8999,4808.1001,1199.3,3841.8,2826.5,914.09003,85.873001,1.6768,.46417999,1.2126,.88235998,2.4117999,1007.6,113.95,0,0,0,0,0,0,28,20,0,0,0,0,0,0,0,0,0,0,0,0,0,0,1,0,0
112,Sete,France,800,0,43.400002,3.6830001,0,0,1,0,0,0,0,0,74,41.103001,0,0,0,0,0,0,0,0,.94499999,0,4,0,5000,4431.2998,4592.1001,993.53998,3711.5,2826.8,228.16,31.455,1.2496001,.59627002,.65337002,1.8011,2.5464001,423.60001,291.60999,0,0,0,0,0,0,28,12,0,0,0,0,0,0,0,0,0,0,0,0,0,0,1,0,0
113,St Omer,France,800,0,50.75,2.25,0,0,0,1,0,0,0,0,6,30.573999,0,0,0,0,0,0,0,0,.89499998,0,4,0,5000,4934.8999,5125,1499.8,4163,3148.5,981.17999,35.946999,1.3128,.44749001,.86533999,.85158002,1.7280999,998.83002,196.33,0,0,0,0,0,0,28,10,0,0,0,0,0,0,0,0,0,0,0,0,0,0,1,0,0
114,Steenvoorde,France,800,0,50.799999,2.5829999,0,0,0,0,0,1,0,0,34,15.465,0,0,0,0,0,0,0,0,.493,0,4,0,5000,4905.6001,5096.7002,1475.5,4132.5,3115.3999,987.31,20.018999,1.3284,.44701001,.88134998,.50875002,1.0168999,1013.4,179.17,0,0,0,0,0,0,28,10,0,0,0,0,0,0,0,0,0,0,0,0,0,0,1,0,0
115,St-Etienne,France,800,0,45.43,4.3899999,0,0,0,0,0,0,0,0,549,184.28999,1,0,0,0,0,0,0,0,.32600001,0,4,0,5000,4451.6001,4624,980.84998,3710.1001,2775.8999,456.14999,54.363998,1.473,.54051,.93247998,.61233002,1.0868,606.57001,62.319,0,0,0,0,1,12,28,12,0,0,0,0,0,0,0,0,0,0,1,12,0,0,1,0,0
116,St-Germain,France,800,0,48.900002,2.0829999,0,0,0,1,0,0,0,0,86,49.534,0,0,0,0,0,0,0,0,.77100003,0,4,0,5000,4853.7998,5036.1001,1391.6,4093.8,3108.1001,775.65002,12.44,2.2627001,.47940001,1.7833,.90752,3.5342,794.89001,28.032,0,0,1,25,0,0,28,25,0,0,0,0,0,0,1,25,0,0,0,0,0,0,1,0,0
117,St-Jean-d'Angely,France,800,0,45.950001,-.51700002,0,0,0,1,0,1,0,0,32,19.083,0,0,0,0,0,0,0,0,.99900001,0,4,0,5000,4973,5136.7998,1514.9,4244.2998,3324.8999,369.67001,39.736,1.2871,.56753999,.71951997,1.0598,1.4778,442.37,117.79,0,0,0,0,0,0,28,10,0,0,0,0,0,0,0,0,0,0,0,0,0,0,1,0,0
118,St-Malo,France,800,0,48.639999,-2.0799999,0,0,1,0,0,1,0,0,22,20.514,0,0,0,0,0,0,0,0,.86286998,0,4,0,5000,5255.5,5427.7002,1784.1,4510.6001,3551.2,649.53998,21.860001,1.1586,.48256001,.67601001,1.5113,2.3731999,775.79999,76.588997,0,0,0,0,1,10,28,10,0,0,0,0,0,0,0,0,0,0,1,10,0,0,1,0,0
119,St-Quentin,France,800,0,49.849998,3.29,0,0,0,1,1,0,0,0,82,13.883,0,0,0,0,0,0,0,0,.97500002,0,4,0,5000,4785.1001,4974,1346.7,4015.3,3007.8,888.28003,36.189999,1.7447,.46208999,1.2826,.87765002,2.4042001,938.53998,48.145,0,0,1,10,0,0,28,10,0,0,0,0,0,0,1,10,0,0,0,0,0,0,1,0,0
120,Strasbourg (Strassburg),France,800,0,48.583,7.75,0,0,0,1,1,0,0,0,140,6.9422998,1,0,0,0,0,0,0,0,.94199997,0,4,0,5000,4284,4478.6001,901.65002,3507.6001,2491.8999,958.35999,64.935997,1.7215,.47979,1.2417001,.91292,2.5455999,1117.2,111.28,0,0,0,0,0,0,28,20,0,0,0,0,0,0,0,0,0,0,0,0,0,0,1,0,0
121,Tarascon,France,800,0,43.799999,4.6669998,0,0,0,1,0,1,0,0,7,36.525002,0,0,0,0,0,0,0,0,.83499998,0,2,0,5000,4347.7998,4513,894.26001,3620.3,2721.2,340.23999,15.097,1.2764,.57071,.70564997,1.0633,1.4761,542.41998,217.27,0,0,0,0,0,0,28,12,0,0,0,0,0,0,0,0,0,0,0,0,0,0,1,0,0
122,Tarbes,France,800,0,43.233002,.082999997,0,0,0,1,0,1,0,0,313,56.556999,1,0,0,0,0,0,0,0,.86400002,0,4,0,5000,4795.5,4947.6001,1388.3,4090.3,3224.8999,133.71001,72.697998,1.3299,.78575999,.54409999,1.3666,1.1384,133.71001,373.98999,0,0,0,0,0,0,28,10,0,0,0,0,0,0,0,0,0,0,0,0,0,0,1,0,0
123,Toulon,France,800,0,43.117001,5.9330001,0,0,1,0,0,0,0,0,7,193.00999,1,0,0,0,0,0,0,0,.99299997,0,2,0,5000,4189.1001,4353.7998,741.42999,3463.5,2574.6001,405.04999,62.284,1.2585,.56963998,.68888003,1.7557,2.7769001,656.97998,315.32999,0,0,0,0,0,0,28,12,0,0,0,0,0,0,0,0,0,0,0,0,0,0,1,0,0
124,Toulouse,France,800,0,43.599998,1.433,0,0,0,1,1,0,0,0,136,25.59,1,0,0,0,0,0,0,0,.82499999,0,4,0,5000,4671.1001,4828,1244.4,3957.5,3078.3,207.03999,47.585999,1.2727,.66974002,.60294002,1.2058001,1.2572,226.92,353.60999,0,0,0,0,0,0,28,10,0,0,0,0,0,0,0,0,0,0,0,0,0,0,1,0,0
125,Tourcoing,France,800,0,50.716999,3.1500001,0,0,0,1,0,0,0,0,37,9.1351004,0,0,0,0,0,0,0,0,.42199999,0,4,0,5000,4846,5038.1001,1422.3,4071.7,3052.3999,982.62,13.395,1.3895,.44865999,.94089001,.85391003,1.8586,1023.7,138.10001,0,0,0,0,0,0,28,10,0,0,0,0,0,0,0,0,0,0,0,0,0,0,1,0,0
126,Tours,France,800,0,47.382999,.68300003,20,20,0,1,1,0,0,0,49,19.191,1,0,0,0,0,0,0,0,.66100001,0,4,0,5000,4917.7002,5090.5,1446.3,4173.2998,3221.3,569.04999,75.711998,1.299,.51664001,.78239,.97192001,1.5886,598.73999,97.211998,0,0,0,0,1,10,28,10,0,0,0,0,0,0,0,0,0,0,1,10,0,0,1,0,0
127,Troyes,France,800,0,48.299999,4.0830002,0,0,0,1,1,0,0,0,106,20.120001,1,0,0,0,0,0,0,0,.921,0,4,0,5000,4625.7002,4810.1001,1170.8,3863.2,2875.8,736.78998,79.060997,1.6987,.48712999,1.2115999,.92162001,2.3541999,824.5,91.171997,0,0,0,0,1,10,28,10,0,0,0,0,0,0,0,0,0,0,1,10,0,0,1,0,0
128,Valenciennes,France,800,0,50.349998,3.533,0,0,0,1,0,1,0,0,33,27.593,0,0,0,0,0,0,0,0,.81099999,0,4,0,5000,4789,4980.3999,1363.4,4015.5,2999.2,946.97998,32.415001,1.5321,.45438999,1.0777,.86421001,2.0908999,1000.1,87.247002,0,0,0,0,1,10,28,10,0,0,0,0,0,0,0,0,0,0,1,10,0,0,1,0,0
129,Versailles,France,800,0,48.799999,2.1329999,0,0,0,1,0,0,0,0,135,34.035,0,0,0,0,0,0,0,0,.77100003,0,4,0,5000,4843.7002,5025.7002,1380.8,4084.2,3099.8999,764.40002,12.44,2.4374001,.48128,1.9561,.91077,3.8763001,785.73999,23.589001,0,0,1,25,0,0,28,25,0,0,0,0,0,0,1,25,0,0,0,0,0,0,1,0,0
130,Vienne,France,800,0,45.516998,4.8670001,0,0,0,1,1,0,0,0,262,66.554001,0,1,0,0,0,0,0,0,.81,0,4,0,5000,4407.7002,4581.7002,936.09998,3663.7,2724.8,494.14999,25.611,1.7569,.53495997,1.2219,1.0037,2.4944999,655.03003,25.611,0,0,1,12,0,0,28,12,0,0,0,0,0,0,1,12,0,0,0,0,0,0,1,0,0
131,Villefranche-de-Rouergue,France,800,0,44.349998,2.05,0,0,0,1,0,0,0,0,440,82.447998,0,0,0,0,0,0,0,0,.75400001,0,4,0,5000,4639.7002,4801.5,1192.2,3916.5,3017.8,270.14999,48.035999,1.2742,.6074,.66680998,1.1155,1.3818001,335.22,313.48999,0,0,0,0,0,0,28,10,0,0,0,0,0,0,0,0,0,0,0,0,0,0,1,0,0
132,Villeneuve,France,800,0,44.419998,.72000003,0,0,0,1,1,0,0,0,81,41.200001,0,0,0,0,0,0,0,0,.99900001,0,4,0,5000,4779.1001,4938.2998,1338.5,4059.8999,3165.8,274.06,26.462,1.2694,.63616002,.63326001,1.1597,1.3124,274.06,244.35001,0,0,0,0,0,0,28,10,0,0,0,0,0,0,0,0,0,0,0,0,0,0,1,0,0
133,Aachen,Germany,800,0,50.766998,6.0999999,0,5,0,0,0,1,0,0,176,47.193001,0,0,0,0,0,0,0,0,.67699999,0,4,0,3250,4565.7998,4765,1205.5,3782.6001,2745.1001,1070.9,33.139999,1.6118,.45032999,1.1614,.51284999,1.3457,1176.8,96.272003,0,0,0,0,1,15,28,15,0,0,0,0,0,0,0,0,0,0,1,15,0,0,1,0,0
134,Altona,Germany,800,0,53.549999,9.9329996,0,0,1,1,0,0,0,0,10,8.6646004,0,0,0,0,0,0,0,0,.39300001,0,4,0,3250,4381.6001,4599.3999,1303.4,3579.3999,2490.1001,1543.8,7.7932,1.0753,.42785999,.64741999,1.3523999,2.5572,1678.8,431.78,0,0,0,0,0,0,28,20,0,0,0,0,0,0,0,0,0,0,0,0,0,0,1,0,0
135,Ansbach,Germany,800,0,49.299999,10.583,0,0,0,1,0,0,0,0,406,25.799999,0,0,0,0,0,0,0,0,.52999997,0,4,0,3250,4057.3999,4262.2002,834.41998,3268.3,2221.5,1234.4,47.231998,1.4439,.47510001,.96877003,.90899003,2.0248001,1369.5,171.96001,0,0,0,0,0,0,10,25,0,0,0,0,0,0,0,0,0,0,0,0,0,0,1,0,0
136,Augsburg,Germany,800,0,48.367001,10.883,0,0,0,1,1,0,0,0,474,21.798,1,0,0,0,0,0,0,0,.69400001,0,4,0,3250,3974.3999,4176.2998,727.5,3189,2154.3,1192.3,67.432999,1.4626,.48664999,.97599,.93022001,2.0474,1268.7,153.22,0,0,0,0,0,0,10,25,0,0,0,0,0,0,0,0,0,0,0,0,0,0,1,0,0
137,Bamberg,Germany,800,0,49.867001,10.867,0,0,0,1,0,0,0,0,293,27.822001,0,0,0,0,0,0,0,0,.38,0,4,0,3250,4064.7,4272.5,887.19,3272.3,2215.5,1300.2,45.120998,1.3951,.46937999,.92569,.89916003,1.9378,1432.6,165.38,0,0,0,0,0,0,10,25,0,0,0,0,0,0,0,0,0,0,0,0,0,0,1,0,0
138,Barmen,Germany,800,0,51.283001,7.217,0,0,0,1,0,0,0,0,191,43.459,0,0,0,0,0,0,0,0,.52700001,0,4,0,3250,4489.7998,4693.5,1183.5,3701.2,2650.1001,1175.4,10.08,1.6823,.44564,1.2366,.85162002,2.5242,1295.3,48.978001,0,0,1,15,0,0,28,15,0,0,0,0,0,0,1,15,0,0,0,0,0,0,1,0,0
139,Bautzen,Germany,800,0,51.182999,14.433,0,0,0,1,0,0,0,0,206,64.792999,0,0,0,0,0,0,0,0,.454,0,4,0,3250,3826.3,4048,1027.9,3021.8999,1927.6,1633.6,63.467999,1.1119,.46858999,.64332002,.90355998,1.387,1633.6,349.38,0,0,0,0,0,0,10,25,0,0,0,0,0,0,0,0,0,0,0,0,0,0,0,0,0
140,Bayreuth,Germany,800,0,49.950001,11.583,0,0,0,1,0,0,0,0,343,49.862999,0,0,0,0,0,0,0,0,.33899999,0,4,0,3250,4004.1001,4214,882.20001,3209.5,2146.7,1364.8,77.959999,1.4005001,.47055,.92995,.90245998,1.951,1446,116.71,0,0,0,0,0,0,10,25,0,0,0,0,0,0,0,0,0,0,0,0,0,0,1,0,0
141,Berlin,Germany,800,0,52.516998,13.4,0,0,0,1,0,0,0,0,35,6.2158999,0,0,0,0,0,0,0,0,.34400001,0,4,0,3250,4005.8,4229,1156.8,3200.5,2101.5,1703.1,38.973,1.0662,.45043001,.61574,.86817998,1.3199,1749.8,406.66,0,0,0,0,0,0,10,25,0,0,0,0,0,0,0,0,0,0,0,0,0,0,0,0,0
142,Bonn,Germany,800,0,50.733002,7.0999999,0,0,0,1,1,0,0,0,54,47.991001,0,0,0,0,0,0,0,0,.53799999,0,4,0,3250,4468.7002,4670.1001,1138.6,3682.8999,2639.6001,1115.5,27.698999,2.0611,.45203,1.6091,.86291999,3.2672,1239.1,27.698999,0,0,1,15,0,0,28,15,0,0,0,0,0,0,1,15,0,0,0,0,0,0,1,0,0
143,Brandenburg,Germany,800,0,52.417,12.55,0,0,0,1,0,0,0,0,29,8.1410999,0,0,0,0,0,0,0,0,.324,0,4,0,3250,4074,4294.7998,1143.3,3270.1001,2176.2,1628.6,57.932999,1.0931,.44804001,.64503998,.86260003,1.375,1724.9,373.17999,0,0,0,0,0,0,10,25,0,0,0,0,0,0,0,0,0,0,0,0,0,0,0,0,0
144,Braunschweig,Germany,800,0,52.266998,10.533,0,0,0,1,0,0,0,0,71,9.5145998,0,0,0,0,0,0,0,0,.72600001,0,4,0,3250,4245.2998,4460.5,1151.8,3445.3,2363.7,1468.4,42.007,1.1662,.44262999,.72356999,.85001999,1.5218,1620.3,354.20999,0,0,0,0,0,0,28,20,0,0,0,0,0,0,0,0,0,0,0,0,0,0,1,0,0
145,Bremen,Germany,800,0,53.083,8.8000002,0,0,0,1,0,0,0,0,3,2.1194,1,0,0,0,0,0,0,0,.59600002,0,4,0,3250,4453.7998,4667.5,1289.8,3655,2575.5,1434.1,122.19,1.1436,.42936999,.71419001,.82384998,1.4912,1559.8,314.06,0,0,0,0,0,0,28,15,0,0,0,0,0,0,0,0,0,0,0,0,0,0,1,0,0
146,Chemnitz (olim Karl-Marx-Stadt),Germany,800,0,50.833,12.917,0,0,0,1,0,0,0,0,297,53.598999,0,0,0,0,0,0,0,0,.50999999,0,4,0,3250,3937.7,4154.2002,971.04999,3136.8999,2055,1540.4,51.040001,1.2029001,.46579999,.73715001,.89595997,1.5688,1560.1,216.87,0,0,0,0,0,0,10,25,0,0,0,0,0,0,0,0,0,0,0,0,0,0,0,0,0
147,Dessau,Germany,800,0,51.833,12.25,0,0,0,1,0,0,0,0,60,7.4007001,0,0,0,0,0,0,0,0,.63499999,0,4,0,3250,4062.2,4280.2998,1080.1,3260.1001,2172.7,1559.4,45.441002,1.1438,.45289001,.69089001,.87115997,1.4677,1657.2,306.26001,0,0,0,0,0,0,10,25,0,0,0,0,0,0,0,0,0,0,0,0,0,0,0,0,0
148,Dresden,Germany,800,0,51.049999,13.75,0,0,0,1,0,0,0,0,111,61.022999,0,0,0,0,0,0,0,0,.41600001,0,4,0,3250,3877.8,4097.2998,1002.1,3074.8999,1985.7,1601.6,44.584,1.1449,.46689999,.67798001,.89933002,1.4536999,1601.6,286.81,0,0,0,0,0,0,10,25,0,0,0,0,0,0,0,0,0,0,0,0,0,0,0,0,0
149,Duesseldorf,Germany,800,0,51.216999,6.7670002,0,0,0,1,0,0,0,0,37,11.708,0,0,0,0,0,0,0,0,.76300001,0,4,0,3250,4528.6001,4731,1204,3741.3999,2693.8999,1147.1,25.372,1.7736,.44564,1.3279001,.85117,2.7014999,1260.3,37.803001,0,0,1,15,0,0,28,15,0,0,0,0,0,0,1,15,0,0,0,0,0,0,1,0,0
150,Elberfeld,Germany,800,0,51.266998,7.1329999,0,0,0,0,0,0,0,0,210,45.209999,0,0,0,0,0,0,0,0,.52700001,0,4,0,3250,4497.7002,4701.1001,1187.6,3709.3,2659,1169.8,10.08,1.7282,.44560999,1.2826,.50774002,1.4871,1288.4,42.577999,0,0,1,15,0,0,28,15,0,0,0,0,0,0,1,15,0,0,0,0,0,0,1,0,0
151,Emden,Germany,800,0,53.367001,7.217,0,0,1,0,0,0,0,0,2,.71893001,0,0,0,0,0,0,0,0,.579,0,4,0,3250,4616.7002,4827.6001,1387.3,3820.2,2746.6001,1384.3,76.412003,1.1296999,.42236999,.70732999,1.3317,2.6307001,1486,271.23999,0,0,0,0,0,0,28,15,0,0,0,0,0,0,0,0,0,0,0,0,0,0,1,0,0
152,Erfurt,Germany,800,0,50.983002,11.033,0,0,0,1,0,0,0,0,194,70.198997,0,1,0,0,0,0,0,0,.68900001,0,4,0,3250,4118.3999,4330.5,1002.7,3321.3999,2249.8999,1398.2,34.667999,1.2677,.45770001,.81001002,.87821001,1.7024,1554.4,244.72,0,0,0,0,0,0,10,25,0,0,0,0,0,0,0,0,0,0,0,0,0,0,1,0,0
153,Flensburg,Germany,800,0,54.783001,9.4329996,0,0,1,0,0,0,0,0,26,11.756,0,0,0,0,0,0,0,0,.222,0,4,0,3250,4506.6001,4727,1447.9,3702.7,2607,1631.4,146.00999,.99422002,.41439,.57982999,1.3094,2.3280001,1751.7,506.14999,0,0,0,0,0,0,28,15,0,0,0,0,0,0,0,0,0,0,0,0,0,0,1,0,0
154,Frankfurt a Main,Germany,800,0,50.117001,8.6829996,0,0,0,1,0,0,0,0,119,20.174999,0,0,0,0,0,0,0,0,.66900003,0,4,0,3250,4284,4487,993.90997,3496.6001,2451.3,1155.6,26.742001,2.0271001,.46171001,1.5654,.88212001,3.1981001,1308,47.52,0,0,1,20,2,30,28,20,0,0,0,0,0,0,1,20,0,0,2,30,0,0,1,0,0
155,Frankfurt a Oder,Germany,800,0,52.349998,14.55,0,0,0,1,0,0,0,0,23,21.614,0,0,0,0,0,0,0,0,.85699999,0,4,0,3250,3894.1001,4119.7998,1154.3,3087.8,1984.5,1759,115,1.0501,.45719999,.59293997,.88240999,1.2803,1759,452.23001,0,0,0,0,0,0,10,25,0,0,0,0,0,0,0,0,0,0,0,0,0,0,0,0,0
156,Freiberg,Germany,800,0,50.917,13.367,0,0,0,0,0,0,0,0,348,57.341999,0,0,0,0,0,0,0,0,.303,0,4,0,3250,3903.2,4121.2002,983.70001,3101.3,2015.7,1579,44.584,1.1716,.46665001,.70494002,.53286999,.83868003,1579,250.12,0,0,0,0,0,0,10,25,0,0,0,0,0,0,0,0,0,0,0,0,0,0,0,0,0
157,Freiburg,Germany,800,0,48,7.8499999,0,0,0,1,0,0,0,0,273,189.33,0,0,0,0,0,0,0,0,.86400002,0,4,0,3250,4242.2002,4434.7002,843.96002,3469.1001,2462.5,917.31,54.162998,1.5806,.48751,1.0931,.92660999,2.2528,1085.2,159.16,0,0,0,0,0,0,28,20,0,0,0,0,0,0,0,0,0,0,0,0,0,0,1,0,0
158,Fuerth,Germany,800,0,49.466999,10.967,0,0,0,0,0,0,0,0,304,23.325001,0,0,0,0,0,0,0,0,.52999997,0,4,0,3250,4031.3,4237.7998,842.09003,3240.3,2188.3,1279.2,12.44,1.4382,.47415,.96408999,.54066998,1.1331,1389.3,135.03999,0,0,0,0,0,0,10,25,0,0,0,0,0,0,0,0,0,0,0,0,0,0,1,0,0
159,Goerlitz,Germany,800,0,51.167,15,0,0,0,1,0,0,0,0,188,19.577,0,0,0,0,0,0,0,0,.51899999,0,4,0,3250,3775.7,3998.8999,1040.9,2970.5,1873.1,1650.3,42.303001,1.0956,.47141999,.62422001,.90976,1.3516001,1650.3,397.95999,0,0,0,0,0,0,10,25,0,0,0,0,0,0,0,0,0,0,0,0,0,0,0,0,0
160,Goslar,Germany,800,0,51.900002,10.433,0,0,0,1,0,0,0,0,406,164.8,0,0,0,0,0,0,0,0,.49599999,0,4,0,3250,4230.8999,4444.6001,1114.6,3432.2,2354.7,1429.7,42.007,1.2053,.44617,.75910997,.85636997,1.5935,1583.9,318.41,0,0,0,0,0,0,28,20,0,0,0,0,0,0,0,0,0,0,0,0,0,0,1,0,0
161,Gotha,Germany,800,0,50.950001,10.717,0,0,0,0,0,0,0,0,290,33.832001,0,0,0,0,0,0,0,0,.69099998,0,4,0,3250,4144.8999,4356.1001,1006.1,3348.7,2279.6001,1372.2,34.667999,1.2862,.45710999,.82911998,.52142,.97622001,1537.7,260.70001,0,0,0,0,0,0,28,25,0,0,0,0,0,0,0,0,0,0,0,0,0,0,1,0,0
162,Halberstadt,Germany,800,0,51.900002,11.05,0,0,0,1,0,0,0,0,120,32.980999,0,0,0,0,0,0,0,0,.852,0,4,0,3250,4174.6001,4389.8999,1101.4,3374.7,2293.5,1474,17.198999,1.179,.44806999,.73092997,.86065,1.5408,1634.1,335.14999,0,0,0,0,0,0,28,25,0,0,0,0,0,0,0,0,0,0,0,0,0,0,1,0,0
163,Halle,Germany,800,0,51.5,12,0,0,0,1,0,0,0,0,105,18.802999,0,0,0,0,0,0,0,0,.93300003,0,4,0,3250,4063.3999,4279.7998,1045.8,3262.6001,2179.7,1514.3,42.702999,1.1797,.45539999,.72426999,.87541997,1.5345,1618.5,270.25,0,0,0,0,0,0,10,25,0,0,0,0,0,0,0,0,0,0,0,0,0,0,1,0,0
164,Hamburg,Germany,800,0,53.549999,10,0,0,1,1,0,0,0,0,3,7.1318002,0,0,0,0,0,0,0,0,.39300001,0,4,0,3250,4375.2998,4593.2998,1301.6,3573,2483.3999,1548,7.7932,1.0739,.42807999,.64579999,1.3530999,2.5553,1683.8,435.14001,0,0,0,0,0,0,28,20,0,0,0,0,0,0,0,0,0,0,0,0,0,0,1,0,0
165,Hanau,Germany,800,0,50.132999,8.9169998,0,0,0,1,1,0,0,0,103,17.681999,0,0,0,0,0,0,0,0,.66900003,0,4,0,3250,4262.1001,4465.7002,983.53003,3473.8999,2426.8999,1173,26.742001,1.7981,.46202001,1.3361,.88299,2.7416999,1328.2,73.766998,0,0,0,0,2,30,28,20,0,0,0,0,0,0,0,0,0,0,2,30,0,0,1,0,0
166,Hannover,Germany,800,0,52.367001,9.717,0,0,0,1,0,0,0,0,53,6.2863002,0,0,0,0,0,0,0,0,.64899999,0,4,0,3250,4325.2002,4538.7002,1184.2,3526.5,2448.6001,1423.3,36.838001,1.1896,.43923,.75038999,.84284002,1.5704,1565.9,306.54999,0,0,0,0,0,0,28,20,0,0,0,0,0,0,0,0,0,0,0,0,0,0,1,0,0
167,Heidelberg,Germany,800,0,49.419998,8.7200003,0,0,0,1,0,1,0,0,311,129.33,0,0,0,0,0,0,0,0,.78299999,0,4,0,3250,4239.2998,4439.7002,923.10999,3455.2,2419.6001,1098.7,28.879999,2.3013,.47013,1.8312,.89718997,3.7323,1259.4,34.111,0,0,2,30,1,20,28,20,0,0,0,0,0,0,2,30,0,0,1,20,0,0,1,0,0
168,Hildesheim,Germany,800,0,52.150002,9.967,0,0,0,1,0,0,0,0,129,47.258999,0,0,0,0,0,0,0,0,.64899999,0,4,0,3250,4288.5,4502,1153.5,3490,2412.8,1420.1,36.838001,1.2017,.44222999,.75951999,.84859997,1.5907,1567.3,302.76999,0,0,0,0,0,0,28,20,0,0,0,0,0,0,0,0,0,0,0,0,0,0,1,0,0
169,Kassel,Germany,800,0,51.317001,9.5,0,0,0,1,0,0,0,0,152,51.917999,0,0,0,0,0,0,0,0,.53799999,0,4,0,3250,4279.8999,4489.3999,1081.5,3485.3,2419.7,1315.8,105.04,1.3395,.44984999,.88963002,.86185002,1.85,1465.6,199.58,0,0,0,0,0,0,28,20,0,0,0,0,0,0,0,0,0,0,0,0,0,0,1,0,0
170,Koeln,Germany,800,0,50.932999,6.9499998,15,15,0,1,1,0,0,0,46,9.7306004,0,1,0,0,0,0,0,0,.81599998,0,4,0,3250,4494.6001,4696.3999,1166.2,3708.3,2663.3,1127.3,27.698999,1.4551001,.44940001,1.0057,.85806,2.0589001,1246.3,135.23,0,0,0,0,0,0,28,15,0,0,0,0,0,0,0,0,0,0,0,0,0,0,1,0,0
171,Krefeld,Germany,800,0,51.333,6.5669999,0,0,0,0,0,1,0,0,37,3.7392001,0,0,0,0,0,0,0,0,.76300001,0,4,0,3250,4553.8999,4756.2002,1226.3,3766.8,2719.1001,1148.7,25.372,1.5918,.44402999,1.1478,.50586998,1.3317,1257.5,61.200001,0,0,0,0,1,15,28,15,0,0,0,0,0,0,0,0,0,0,1,15,0,0,1,0,0
172,Leipzig,Germany,800,0,51.299999,12.333,0,0,0,1,0,0,0,0,110,8.9181995,0,0,0,0,0,0,0,0,.94700003,0,4,0,3250,4020.8,4237.3999,1022.2,3220,2137,1525.5,42.702999,1.1854,.45866001,.72676998,.88190001,1.5423,1601,249.41,0,0,0,0,0,0,10,25,0,0,0,0,0,0,0,0,0,0,0,0,0,0,1,0,0
173,Luebeck,Germany,800,0,53.867001,10.7,0,0,1,1,0,0,0,0,15,9.6337996,0,0,0,0,0,0,0,0,.54400003,0,4,0,3250,4333.7002,4554.2998,1320.3,3529.7,2434.3,1620.6,75.632004,1.0382,.42717999,.61097997,1.3512,2.4758,1761.2,503.73999,0,0,0,0,0,0,28,20,0,0,0,0,0,0,0,0,0,0,0,0,0,0,0,0,0
174,Lueneburg,Germany,800,0,53.25,10.4,0,0,0,1,0,0,0,0,16,15.404,0,0,0,0,0,0,0,0,.27700001,0,4,0,3250,4320,4538,1259.8,3517.7,2428.3999,1545.8,55.349998,1.0883,.4323,.65599,.83092999,1.3832999,1688.3,428.59,0,0,0,0,0,0,28,20,0,0,0,0,0,0,0,0,0,0,0,0,0,0,1,0,0
175,Magdeburg,Germany,800,0,52.167,11.667,0,0,0,1,0,0,0,0,42,6.3874998,0,0,0,0,0,0,0,0,.80400002,0,4,0,3250,4136.1001,4353.8999,1121.6,3334.3,2247.1001,1541.9,71.853996,1.1357,.44736001,.68831003,.86017001,1.4579999,1688.1,346.5,0,0,0,0,0,0,10,25,0,0,0,0,0,0,0,0,0,0,0,0,0,0,1,0,0
176,Mainz,Germany,800,0,49.998001,8.2729998,20,20,0,1,1,0,0,0,106,38.931999,0,1,0,0,0,0,0,0,.417,0,4,0,3250,4315.6001,4517.1001,1003,3529.8999,2489,1117.5,40.903999,1.7858,.46248001,1.3233,.88295001,2.71,1266.1,40.903999,0,0,1,10,1,20,28,10,0,0,0,0,0,0,1,10,0,0,1,20,0,0,1,0,0
177,Mannheim,Germany,800,0,49.487999,8.4650002,0,0,0,1,0,0,0,0,95,3.2578001,0,0,0,0,0,0,0,0,.86199999,0,4,0,3250,4267,4467.1001,943.08002,3483.3,2448.3999,1086.7,19.243,3.1306,.46893001,2.6617,.89471,5.3906002,1243.7,19.243,1,20,1,10,1,20,28,20,0,0,1,20,0,0,1,10,0,0,1,20,0,0,1,0,0
178,Mecklenburg,Germany,800,0,53.849998,11.467,0,0,0,1,0,0,0,0,40,18.547001,0,0,0,0,0,0,0,0,.66500002,0,4,0,3250,4264.2002,4486.6001,1306.2,3459.1001,2360.5,1669,26.014999,1.0266,.43000999,.59662002,.82788998,1.268,1817.2,531.03998,0,0,0,0,0,0,28,25,0,0,0,0,0,0,0,0,0,0,0,0,0,0,0,0,0
179,Muelheim an der Ruhr,Germany,800,0,51.432999,6.8829999,0,0,0,1,0,0,0,0,63,27.989,0,0,0,0,0,0,0,0,.76300001,0,4,0,3250,4530.6001,4734.1001,1217.2,3742.2,2691.3999,1173.3,26.246,1.6039,.44332001,1.1605999,.84710997,2.3687,1286.3,55.806999,0,0,0,0,1,15,28,15,0,0,0,0,0,0,0,0,0,0,1,15,0,0,1,0,0
180,Muenchen,Germany,800,0,48.150002,11.583,0,0,0,1,0,0,0,0,514,23.271,0,0,0,0,0,0,0,0,.54500002,0,4,0,3250,3895.7,4098.7002,687.84998,3109.3,2072.8,1223.3,81.551003,1.4927,.49099001,1.0017,.93935001,2.1063001,1250.5,111.08,0,0,0,0,0,0,10,25,0,0,0,0,0,0,0,0,0,0,0,0,0,0,1,0,0
181,Muenster,Germany,800,0,51.966999,7.6329999,0,0,0,1,0,0,0,0,55,6.4998999,0,0,0,0,0,0,0,0,.676,0,4,0,3250,4492.8999,4700,1228.5,3700.3999,2638.7,1264.1,57.280998,1.3555,.43849999,.91698998,.83919001,1.8892,1383.6,137.55,0,0,0,0,0,0,28,15,0,0,0,0,0,0,0,0,0,0,0,0,0,0,1,0,0
182,Noerdlingen,Germany,800,0,48.849998,10.5,0,0,0,1,0,0,0,0,430,49.456001,0,0,0,0,0,0,0,0,.824,0,4,0,3250,4038.2,4241.1001,789.58002,3251.6001,2212.1001,1195.3,50.051998,1.4588,.48014,.97868001,.91788,2.0465,1320.2,179.09,0,0,0,0,0,0,10,25,0,0,0,0,0,0,0,0,0,0,0,0,0,0,1,0,0
183,Nuernberg,Germany,800,0,49.450001,11.083,0,0,0,1,0,0,0,0,301,19.044001,0,0,0,0,0,0,0,0,.53899997,0,4,0,3250,4019.8,4226.6001,837.42999,3228.7,2176.1001,1287,12.44,1.4481,.47466999,.97346002,.90907001,2.0372,1387.7,122.86,0,0,0,0,0,0,10,25,0,0,0,0,0,0,0,0,0,0,0,0,0,0,1,0,0
184,Osnabrueck,Germany,800,0,52.266998,8.0500002,0,0,0,1,0,0,0,0,65,26.358,1,0,0,0,0,0,0,0,.35499999,0,4,0,3250,4472.2002,4681.3999,1238.1,3677.6001,2610.3,1315.4,57.280998,1.2769001,.43608999,.84078002,.83528,1.7401,1438.2,192.02,0,0,0,0,0,0,28,15,0,0,0,0,0,0,0,0,0,0,0,0,0,0,1,0,0
185,Passau,Germany,800,0,48.583,13.483,0,0,0,1,1,0,0,0,310,48.083,1,0,0,0,0,0,0,0,.40900001,0,4,0,3250,3745.5,3955.5,733.15997,2951.2,1893.1,1334.9,96.176003,1.323,.49243,.83051997,.94590998,1.7745,1334.9,160.89,0,0,0,0,0,0,10,25,0,0,0,0,0,0,0,0,0,0,0,0,0,0,1,0,0
186,Ppotsdam,Germany,800,0,52.400002,13.067,0,0,0,1,0,0,0,0,31,10.503,0,0,0,0,0,0,0,0,.417,0,4,0,3250,4026.8,4248.7998,1141.8,3222.1001,2125.7,1667.7,38.973,1.0811,.45028001,.63080001,.86745,1.3491,1730.9,382.79999,0,0,0,0,0,0,10,25,0,0,0,0,0,0,0,0,0,0,0,0,0,0,0,0,0
187,Prenzlau,Germany,800,0,53.317001,13.867,0,0,0,1,0,0,0,0,34,17.045,0,0,0,0,0,0,0,0,.70999998,0,4,0,3250,4018.8999,4245.6001,1247.4,3212,2106.3,1801.1,79.778,1.0159,.44453999,.57138002,.85777998,1.2297,1844.5,506.37,0,0,0,0,0,0,10,25,0,0,0,0,0,0,0,0,0,0,0,0,0,0,0,0,0
188,Quedlinburg,Germany,800,0,51.783001,11.15,0,0,0,0,0,0,0,0,130,86.008003,0,0,0,0,0,0,0,0,.852,0,4,0,3250,4157.8999,4373.1001,1086.7,3358.1001,2277.6001,1471.5,17.198999,1.1857001,.44964001,.73610997,.51310003,.86957997,1633.5,319.01001,0,0,0,0,0,0,28,25,0,0,0,0,0,0,0,0,0,0,0,0,0,0,1,0,0
189,Regensburg,Germany,800,0,49.016998,12.1,25,25,0,1,0,1,0,0,332,34.777,0,0,0,0,0,0,0,0,.24699999,0,4,0,3250,3899.3999,4107.2002,775.64001,3107.2,2053.2,1332.9,111.08,1.2003,.48254001,.71771997,.92513001,1.536,1351.7,408.20001,0,0,0,0,0,0,10,30,0,0,0,0,0,0,0,0,0,0,0,0,0,0,1,0,0
190,Rostock,Germany,800,0,54.083,12.133,0,0,1,1,0,0,0,0,15,14.937,0,0,0,0,0,0,0,0,.667,0,4,0,3250,4221.6001,4446.2998,1325.3,3415.5,2312.7,1733.8,77.636002,1.0036,.43020999,.57337999,1.3624001,2.4145999,1886.1,550.78998,0,0,0,0,0,0,28,25,0,0,0,0,0,0,0,0,0,0,0,0,0,0,0,0,0
191,Schwerin,Germany,800,0,53.632999,11.383,0,0,0,1,0,0,0,0,53,10.176,0,0,0,0,0,0,0,0,.66500002,0,4,0,3250,4257.5,4479.1001,1283.4,3453,2356.1001,1643.8,26.014999,1.0416,.43182001,.60982001,.83113998,1.2946,1792.8,508.84,0,0,0,0,0,0,28,25,0,0,0,0,0,0,0,0,0,0,0,0,0,0,0,0,0
192,Soest,Germany,800,0,51.583,8.1169996,0,0,0,0,0,0,0,0,101,66.429001,0,0,0,0,0,0,0,0,.65799999,0,4,0,3250,4423.7002,4630.6001,1165.9,3631.5,2571.3,1253.3,69.468002,1.4170001,.44387001,.97308999,.50597,1.1354001,1383.5,148.71001,0,0,0,0,0,0,28,15,0,0,0,0,0,0,0,0,0,0,0,0,0,0,1,0,0
193,Speyer,Germany,800,0,49.320999,8.4320002,20,20,0,1,0,1,0,0,102,5.5806999,1,0,0,0,0,0,0,0,.86199999,0,4,0,3250,4261,4460.2998,928.91998,3478.3,2446.2,1069.5,19.243,1.8178999,.47095999,1.3469,.89827001,2.7612,1227.9,36.096001,0,0,1,10,1,20,28,10,0,0,0,0,0,0,1,10,0,0,1,20,0,0,1,0,0
194,Stralsund,Germany,800,0,54.299999,13.1,0,0,1,0,0,0,0,0,1,4.1073999,0,0,0,0,0,0,0,0,.67500001,0,4,0,3250,4152.2998,4379.8999,1347.9,3345.2,2237.7,1821,110.6,.98005003,.43189999,.54815,1.3688,2.3699,1935.2,584.35999,0,0,0,0,0,0,10,25,0,0,0,0,0,0,0,0,0,0,0,0,0,0,0,0,0
195,Stuttgart,Germany,800,0,48.766998,9.1829996,0,0,0,1,1,0,0,0,253,71.336998,0,0,0,0,0,0,0,0,.95599997,0,4,0,3250,4158.2002,4357.2998,836.13,3376.1001,2347.3999,1081,87.934998,1.6375,.47870001,1.1588,.91311002,2.3951001,1254.3,103.12,0,0,0,0,0,0,28,20,0,0,0,0,0,0,0,0,0,0,0,0,0,0,1,0,0
196,Trier,Germany,800,0,49.75,6.6329999,15,15,0,1,1,0,0,0,137,89.009003,0,1,0,0,0,0,0,0,.31099999,0,4,0,3250,4457.1001,4653.6001,1079.9,3677.6001,2651,995.40002,55.957001,1.7164,.46392,1.2525001,.88352001,2.5465,1122.1,85.602997,0,0,0,0,1,25,28,25,0,0,0,0,0,0,0,0,0,0,1,25,0,0,1,0,0
197,Ulm,Germany,800,0,48.567001,10.05,0,0,0,1,0,0,0,0,585,47.629002,0,0,0,0,0,0,0,0,.824,0,4,0,3250,4064.3,4264.7998,776.82001,3280.5,2248.7,1137.3,58.743,1.4799,.48254001,.99738997,.92139,2.0816,1290,198.28999,0,0,0,0,0,0,10,20,0,0,0,0,0,0,0,0,0,0,0,0,0,0,1,0,0
198,Worms,Germany,800,0,49.636002,8.3599997,10,10,0,1,1,0,0,0,96,15.777,1,0,0,0,0,0,0,0,.97000003,0,4,0,3250,4286.1001,4486.5,963.46002,3502,2465.6001,1092,20.563999,2.3248999,.46696001,1.858,.89104998,3.7814,1245.8,36.096001,0,0,2,40,0,0,28,20,0,0,0,0,0,0,2,40,0,0,0,0,0,0,1,0,0
199,Wuerzburg,Germany,800,0,49.797001,9.9490004,0,0,0,1,0,0,0,0,186,43.196999,1,0,0,0,0,0,0,0,.89499998,0,4,0,3250,4146.1001,4351.1001,907.44,3356.5,2307,1221.8,88.991997,1.4737,.46790999,1.0058,.89506,2.0912001,1391.4,177.25,0,0,0,0,0,0,28,20,0,0,0,0,0,0,0,0,0,0,0,0,0,0,1,0,0
200,Bekes,Hungary,800,0,46.766998,21.132999,0,0,0,1,0,0,0,0,85,1.9572999,0,0,0,0,0,0,0,0,.99599999,0,4,0,300,2953.1001,3180.1001,1093.7,2146.6001,1047.5,1230.4,9.9259005,1.2335,.56839001,.66509998,1.1075,1.5031,1619.9,664.52002,0,0,0,0,0,0,10,20,0,0,0,0,0,0,0,0,0,0,0,0,0,0,0,0,0
201,Bekescsaba (Tschabe),Hungary,800,0,46.682999,21.1,0,0,0,0,0,0,0,0,90,2.6614001,0,0,0,0,0,0,0,0,.99599999,0,4,0,300,2949.5,3176.1001,1086.2,2143.2,1045.3,1227.7,9.9259005,1.2367001,.56926,.66746998,.65259999,.82106,1611.1,656.76001,0,0,0,0,0,0,10,20,0,0,0,0,0,0,0,0,0,0,0,0,0,0,0,0,0
202,Buda,Hungary,800,0,47.5,19.033001,0,0,0,1,0,1,0,0,111,99.462997,0,0,0,0,0,0,0,0,.97399998,0,4,0,300,3181.3,3404,944.08002,2376.8999,1287.3,1467.2,5.5665998,1.1816,.53852999,.64306003,1.0451,1.4394,1515.3,716.94,0,0,0,0,0,0,10,10,0,0,0,0,0,0,0,0,0,0,0,0,0,0,0,0,0
203,Dbrecen (Debreczin),Hungary,800,0,47.533001,21.632999,0,0,0,0,0,0,0,0,122,11.277,0,0,0,0,0,0,0,0,.97899997,0,4,0,300,2963.8,3194.8999,1181.4,2156.1001,1046.9,1234,96.469002,1.2104,.56364,.64679003,.64616001,.79536998,1714.4,725.33002,0,0,0,0,0,0,10,20,0,0,0,0,0,0,0,0,0,0,0,0,0,0,0,0,0
204,Gyoengyoes,Hungary,800,0,47.783001,19.933001,0,0,0,0,0,0,0,0,172,152.99001,0,0,0,0,0,0,0,0,.977,0,4,0,300,3123,3349.6001,1040.4,2316.6001,1216.8,1400.3,29.327999,1.1758,.54312998,.63271999,.62211001,.77471,1602.3,781.62,0,0,0,0,0,0,10,10,0,0,0,0,0,0,0,0,0,0,0,0,0,0,0,0,0
205,Gyoer (Raab),Hungary,800,0,47.682999,17.632999,0,0,0,1,1,0,0,0,104,12.532,0,0,0,0,0,0,0,0,.98000002,0,4,0,300,3315.3,3534.3,845.31,2513.3999,1433.6,1438,75.614998,1.1798,.52538002,.65438002,1.0168,1.4536999,1438,632.29999,0,0,0,0,0,0,10,25,0,0,0,0,0,0,0,0,0,0,0,0,0,0,1,0,0
206,Hodmezoevasarhely,Hungary,800,0,46.417,20.333,0,0,0,0,0,0,0,0,77,3.2718,0,0,0,0,0,0,0,0,.99299997,0,4,0,300,2997.6001,3220.7,998.16998,2193.2,1105.8,1284.4,25.150999,1.2335,.56436998,.66912001,.64675999,.82209998,1530,665.37,0,0,0,0,0,0,10,20,0,0,0,0,0,0,0,0,0,0,0,0,0,0,0,0,0
207,Jaszbereny,Hungary,800,0,47.5,19.917,0,0,0,1,0,0,0,0,97,10.015,0,0,0,0,0,0,0,0,.977,0,4,0,300,3105,3330.5,1021.7,2299,1202.1,1384.4,29.327999,1.1865,.54653001,.63994998,1.0624,1.4375,1579.6,754.66998,0,0,0,0,0,0,10,10,0,0,0,0,0,0,0,0,0,0,0,0,0,0,0,0,0
208,Kecskemet,Hungary,800,0,46.900002,19.783001,0,0,0,0,0,0,0,0,107,5.4305,0,0,0,0,0,0,0,0,.96700001,0,4,0,300,3076.8,3299.8,972.59998,2272.3,1183.7,1363,64.734001,1.2082,.55272001,.65543997,.63316,.80347002,1522.7,691.5,0,0,0,0,0,0,10,10,0,0,0,0,0,0,0,0,0,0,0,0,0,0,0,0,0
209,Mako (Makowa),Hungary,800,0,46.216999,20.483,0,0,0,0,0,0,0,0,86,3.7491,0,0,0,0,0,0,0,0,.99299997,0,4,0,300,2971.3999,3194.3,1002.8,2167.2,1081.2,1259.3,26.728001,1.2438999,.56857002,.67536002,.65166998,.83038002,1527.9,639.23999,0,0,0,0,0,0,10,20,0,0,0,0,0,0,0,0,0,0,0,0,0,0,0,0,0
210,Miskolc,Hungary,800,0,48.099998,20.783001,0,0,0,1,0,0,0,0,192,64.295998,0,0,0,0,0,0,0,0,.95899999,0,4,0,300,3073.7,3303.8999,1135.9,2266.1001,1158.1,1344.7,50.181,1.1722,.54721999,.62501001,1.0651,1.4056,1690.3,808,0,0,0,0,0,0,10,20,0,0,0,0,0,0,0,0,0,0,0,0,0,0,0,0,0
211,Pest,Hungary,800,0,47.5,19.083,0,0,0,1,0,0,0,0,97,54.977001,0,0,0,0,0,0,0,0,.97399998,0,4,0,300,3177,3399.8999,948.34003,2372.5,1282.5,1462.5,5.5665998,1.1817,.53895998,.64275002,1.046,1.439,1518.8,718.75,0,0,0,0,0,0,10,10,0,0,0,0,0,0,0,0,0,0,0,0,0,0,0,0,0
212,Sopron (Oedenburg),Hungary,800,0,47.682999,16.6,0,0,0,0,1,0,0,0,207,80.235001,0,0,0,0,0,0,0,0,.95499998,0,4,0,300,3406.7,3622.5,773.40002,2607.3999,1536.6,1377.5,61.132999,1.1938,.51842999,.67536002,.59272999,.81817001,1377.5,521.40997,0,0,0,0,0,0,10,25,0,0,0,0,0,0,0,0,0,0,0,0,0,0,1,0,0
213,Szeged (Szegedin),Hungary,800,0,46.25,20.167,0,0,0,1,0,1,0,0,77,4.4382,0,0,0,0,0,0,0,0,.99299997,0,4,0,300,3000.1001,3222,973.94,2196.5,1113.2,1290.4,25.150999,1.2378,.56489998,.67291999,1.0989,1.5195,1504.9,654.71997,0,0,0,0,0,0,10,10,0,0,0,0,0,0,0,0,0,0,0,0,0,0,0,0,0
214,Szekesfehervar (Stuhlweissenburg),Hungary,800,0,47.200001,18.417,0,0,0,1,0,1,0,0,126,29.736,0,0,0,0,0,0,0,0,.99299997,0,4,0,300,3214.7,3434.3999,872.01001,2412.3999,1332.2,1448.3,74.917,1.1925,.53706002,.65548998,1.0409,1.4648,1448.3,667.27002,0,0,0,0,0,0,10,10,0,0,0,0,0,0,0,0,0,0,0,0,0,0,0,0,0
215,Armagh,Ireland,800,0,53.917,-7.5830002,0,0,0,0,0,0,0,0,76,26.82,0,1,0,0,0,0,0,0,.38600001,0,4,0,260,6065.2002,6246.5,2599.3999,5303.2002,4298.1001,1271.7,122.43,.68396997,.36601001,.31795999,.41800001,.37700999,1574.5,922.52002,0,0,0,0,0,0,28,10,0,0,0,0,0,0,0,0,0,0,0,0,0,0,0,0,0
216,Belfast,Ireland,800,0,54.583,-5.9330001,0,0,0,1,0,0,0,0,9,73.740997,0,0,0,0,0,0,0,0,.33899999,0,4,0,260,5937.8999,6124.7998,2483.8999,5168.2998,4148.2002,1327.6,62.799,.70770001,.36761001,.34009001,.70674998,.71719998,1549.4,863.13,0,0,0,0,0,0,28,10,0,0,0,0,0,0,0,0,0,0,0,0,0,0,0,0,0
217,Cork,Ireland,800,0,51.898998,-8.4960003,0,0,1,1,0,0,0,0,57,35.146,1,0,0,0,0,0,0,0,.27700001,0,4,0,260,6056.1001,6228.3999,2584.5,5308.3999,4332,1078,55.764,.70027,.38424999,.31602001,1.2298,1.3065,1421.3,869.33002,0,0,0,0,0,0,25,10,0,0,0,0,0,0,0,0,0,0,0,0,0,0,0,0,0
218,Drogheda,Ireland,800,0,53.716999,-6.3499999,0,0,0,1,0,0,0,0,1,41.205002,0,0,0,0,0,0,0,0,.55699998,0,4,0,260,5933.7998,6116.7998,2471,5169.6001,4161.2002,1234.3,31.945,.71674001,.37524,.34150001,.72136998,.71996999,1485.7,813.90002,0,0,0,0,0,0,28,10,0,0,0,0,0,0,0,0,0,0,0,0,0,0,0,0,0
219,Dublin,Ireland,800,0,53.333,-6.25,0,0,1,1,0,0,0,0,9,80.344002,0,0,0,0,0,0,0,0,.377,0,4,0,260,5903.7998,6085.6001,2438.8999,5141.3999,4137.1001,1190.6,44.57,.72794002,.38049999,.34742999,1.2108001,1.4105999,1442.6,773.73999,0,0,0,0,0,0,28,10,0,0,0,0,0,0,0,0,0,0,0,0,0,0,0,0,0
220,Dundalk,Ireland,800,0,54,-6.4169998,0,0,1,0,0,0,0,0,3,33.987999,0,0,0,0,0,0,0,0,.193,0,4,0,260,5955.2998,6139.1001,2494.1001,5189.7998,4178.5,1265.7,22.294001,.70894998,.3716,.33735999,1.1824,1.3781,1516.7,842.88,0,0,0,0,0,0,28,10,0,0,0,0,0,0,0,0,0,0,0,0,0,0,0,0,0
221,Galway,Ireland,800,0,53.271999,-9.0489998,0,0,1,0,0,0,0,0,0,7.4277,0,0,0,0,0,0,0,0,.58399999,0,5,0,260,6177.8999,6354,2706.8999,5423.5,4432.6001,1240.1,81.539001,.66350001,.36406001,.29943001,1.1641999,1.2499,1583.9,1001.9,0,0,0,0,0,0,25,10,0,0,0,0,0,0,0,0,0,0,0,0,0,0,0,0,0
222,Kilkenny,Ireland,800,0,52.653999,-7.2519999,0,0,0,1,0,0,0,0,62,29.938999,0,0,0,0,0,0,0,0,.50400001,0,4,0,260,5968.2002,6145.6001,2498,5212.5,4221,1127.4,44.203999,.71702999,.38310999,.33390999,.73685002,.70472997,1437.2,801.02002,0,0,0,0,0,0,28,10,0,0,0,0,0,0,0,0,0,0,0,0,0,0,0,0,0
223,Kilmallock,Ireland,800,0,52.400002,-8.5769997,0,0,0,1,0,0,0,0,80,63.054001,0,0,0,0,0,0,0,0,.493,0,4,0,260,6088.2998,6262.2002,2616.6001,5337.7998,4355.3999,1133.3,30.052999,.68922001,.37737,.31185001,.72667998,.66017997,1476.2,905.14001,0,0,0,0,0,0,25,10,0,0,0,0,0,0,0,0,0,0,0,0,0,0,0,0,0
224,Limerick,Ireland,800,0,52.665001,-8.6230001,0,0,1,1,0,0,0,0,17,46.613998,0,0,0,0,0,0,0,0,.52499998,0,4,0,260,6105.5,6280.2998,2634,5353.3999,4367.8999,1163,30.052999,.68344003,.37382999,.30961001,1.1955,1.2846,1505.7,925.02002,0,0,0,0,0,0,25,10,0,0,0,0,0,0,0,0,0,0,0,0,0,0,0,0,0
225,Londonderry,Ireland,800,0,55,-7.3330002,0,0,0,1,0,0,0,0,18,73.413002,0,0,0,0,0,0,0,0,.083999999,0,5,0,260,6097,6282.3999,2639.2,5328.7998,4310.6001,1385.6,122.43,.66883999,.35593,.31290001,.68506002,.66224998,1662.4,992.5,0,0,0,0,0,0,28,10,0,0,0,0,0,0,0,0,0,0,0,0,0,0,0,0,0
226,New-Ross,Ireland,800,0,52.396999,-6.9369998,0,0,1,1,0,0,0,0,64,41.631001,0,0,0,0,0,0,0,0,.28,0,4,0,260,5924.8999,6102,2454.5,5169.7998,4180,1095.2,24.444,.73038,.38833001,.34204999,1.2381001,1.3925,1395,756.82001,0,0,0,0,0,0,28,10,0,0,0,0,0,0,0,0,0,0,0,0,0,0,0,0,0
227,Waterford,Ireland,800,0,52.257999,-7.112,0,0,1,1,0,0,0,0,7,30.888,0,0,0,0,0,0,0,0,.28,0,4,0,260,5934.8999,6111.1001,2463.8999,5181.1001,4193.7998,1082.5,24.444,.72883999,.38911,.33972999,1.2412,1.3849,1392.9,761.96002,0,0,0,0,0,0,28,10,0,0,0,0,0,0,0,0,0,0,0,0,0,0,0,0,0
228,Wexford,Ireland,800,0,52.334,-6.4580002,0,0,0,1,0,0,0,0,1,29.702999,0,0,0,0,0,0,0,0,.29466999,0,4,0,260,5873.7998,6051.5,2403.8,5117.7002,4126.6001,1081.8,53.997002,.74504,.39225,.35279,.75375998,.74274999,1359.3,711.21002,0,0,0,0,0,0,28,10,0,0,0,0,0,0,0,0,0,0,0,0,0,0,0,0,0
229,Acireale,Italy,800,0,37.617001,15.167,0,0,1,0,0,1,0,0,78,183.34,1,0,0,0,0,0,0,0,.57262999,0,4,0,4000,3006.5,3164.6001,551.10999,2308.3999,1575.6,511.54999,14.361,1.3707,.63576001,.73499,2.0371001,4.0893998,562.63,207.53,0,0,0,0,0,0,10,10,0,0,0,0,0,0,0,0,0,0,0,0,0,0,1,0,0
230,Afragola,Italy,800,0,40.917,14.3,0,0,0,0,0,0,0,0,43,46.998001,0,0,0,0,0,0,0,0,.67900002,0,4,0,4000,3243,3419.2,228.74001,2503.8,1633.3,641.27002,11.193,5.8277001,.59416002,5.2336001,.67657,6.8734999,641.27002,11.193,1,50,0,0,0,0,10,50,0,0,1,50,0,0,0,0,0,0,0,0,0,0,0,0,0
231,Agrigento,Italy,800,0,37.317001,13.567,0,0,0,0,1,0,0,0,172,106.33,0,0,0,0,0,0,0,0,.48988,0,4,0,4000,3159.7,3310.7,511.37,2475,1756.6,341.82001,25.697001,1.4358,.66433001,.77149999,.75203001,.95797998,381.64001,89.431,0,0,0,0,1,10,10,10,0,0,0,0,0,0,0,0,0,0,1,10,0,0,1,0,0
232,Alessandria,Italy,800,0,44.900002,8.6169996,0,0,0,1,0,1,0,0,95,23.940001,0,0,0,0,0,0,0,0,.92199999,0,2,0,4000,4003.3999,4184,540.78003,3250.3,2301.7,738.21997,31.614,1.3812,.53083003,.85036999,1.0029,1.7977999,906.41998,271.75,0,0,0,0,0,0,10,30,0,0,0,0,0,0,0,0,0,0,0,0,0,0,1,0,0
233,Altamura,Italy,800,0,40.817001,16.549999,0,0,0,0,0,0,0,0,458,38.424999,1,0,0,0,0,0,0,0,.90499997,0,4,0,4000,3015.8999,3199.1001,467.82001,2265.8,1382.9,832.04999,14.473,1.6311001,.60007,1.031,.68555999,1.2955,832.04999,46.992001,0,0,1,10,0,0,10,10,0,0,0,0,0,0,1,10,0,0,0,0,0,0,0,0,0
234,Amalfi,Italy,800,0,40.632999,14.6,0,0,1,0,0,0,0,0,10,283.38,1,0,0,0,0,0,0,0,.64399999,0,4,0,4000,3199.2,3374.6001,273.13,2461.8999,1600.3,644.58002,13.446,2.4530001,.59830999,1.8547,1.9148999,12.3,644.58002,44.535,0,0,1,50,0,0,10,50,0,0,0,0,0,0,1,50,0,0,0,0,0,0,0,0,0
235,Ancona,Italy,800,0,43.632999,13.5,0,0,1,0,1,0,0,0,1,57.882,1,0,0,0,0,0,0,0,.75,0,4,0,4000,3459.2,3647.5,219.35001,2696.3,1743.3,830.82001,36.159,1.535,.55343997,.98161,1.7632,4.5559001,830.82001,219.35001,0,0,0,0,0,0,10,50,0,0,0,0,0,0,0,0,0,0,0,0,0,0,0,0,0
236,Andria,Italy,800,0,41.216999,16.283001,0,0,0,0,0,0,0,0,152,87.579002,0,0,0,0,0,0,0,0,.94,0,3,0,4000,3062.8,3247.3,429.35999,2309.6001,1412.9,830.90997,10.687,1.6012,.59398001,1.0073,.67839003,1.2606,830.90997,64.181,0,0,0,0,1,10,10,10,0,0,0,0,0,0,0,0,0,0,1,10,0,0,0,0,0
237,Araiano Irpino,Italy,800,0,41.150002,15.08,0,0,0,0,0,0,0,0,627,107.73,0,0,0,0,0,0,0,0,.95099998,0,6,0,4000,3177,3357.1001,300.60001,2431.1001,1546.4,721.63,36.801998,1.8291,.59118998,1.2379,.67404997,1.5568,721.63,98.623001,0,0,0,0,1,50,10,50,0,0,0,0,0,0,0,0,0,0,1,50,0,0,0,0,0
238,Arezzo,Italy,800,0,43.417,11.883,0,0,0,0,1,0,0,0,415,147.17999,1,0,0,0,0,0,0,0,.98500001,0,6,0,4000,3606.7,3789,178.39,2853,1918.9,747.70001,60.005001,1.5928,.55400997,1.0388,.63028997,1.2413,747.70001,178.39,0,0,0,0,0,0,10,50,0,0,0,0,0,0,0,0,0,0,0,0,0,0,1,0,0
239,Arpino,Italy,800,0,41.650002,13.6,0,0,0,0,0,1,0,0,390,169.88,0,0,0,0,0,0,0,0,.99199998,0,4,0,4000,3348.2,3526.3,127.6,2604.3,1712.4,651.19,48.747002,1.9631,.58302999,1.3801,.66360998,1.6977,651.19,114.4,0,0,0,0,0,0,10,50,0,0,0,0,0,0,0,0,0,0,0,0,0,0,0,0,0
240,Ascoli Piceno,Italy,800,0,42.849998,13.567,0,0,0,1,0,1,0,0,233,299.29001,0,0,0,0,0,0,0,0,.96899998,0,4,0,4000,3411.6001,3596.1001,159.2,2655.5,1724.9,759.44,50.511002,1.6691999,.56466001,1.1045001,1.0746,2.4554,759.44,159.2,0,0,0,0,0,0,10,50,0,0,0,0,0,0,0,0,0,0,0,0,0,0,1,0,0
241,Asti,Italy,800,0,44.900002,8.1999998,0,0,0,1,1,0,0,0,117,32.736,1,0,0,0,0,0,0,0,.75199997,0,2,0,4000,4045.1001,4224.5,578.75,3293.6001,2347.8,708.46997,37.638,1.3634,.53135002,.83206999,1.003,1.7562,917.03003,317.51999,0,0,0,0,0,0,10,30,0,0,0,0,0,0,0,0,0,0,0,0,0,0,1,0,0
242,Augusta,Italy,800,0,37.216999,15.217,0,0,1,0,0,0,0,0,6,63.363998,0,0,0,0,0,0,0,0,.49632999,0,4,0,4000,2985,3140.5,590.67999,2293.2,1579.8,498.85001,18.409,1.3415,.63903999,.70248997,2.0476999,3.8884001,562.96002,227.7,0,0,0,0,0,0,10,10,0,0,0,0,0,0,0,0,0,0,0,0,0,0,1,0,0
243,Aversa,Italy,800,0,40.966999,14.2,0,0,0,0,0,0,0,0,38,43.527,0,0,0,0,0,0,0,0,.67900002,0,4,0,4000,3255.3999,3431.5,216.37,2516.2,1644.4,637.28003,12.372,4.4770999,.59346998,3.8836,.67570001,5.0707998,637.28003,16.101,1,50,0,0,0,0,10,50,0,0,1,50,0,0,0,0,0,0,0,0,0,0,0,0,0
244,Bari,Italy,800,0,41.132999,16.85,10,10,1,0,1,0,0,0,3,29.656,1,0,0,0,0,0,0,0,.92067999,0,3,0,4000,3002.6001,3188.6001,493.53,2247.3,1349.4,877.96002,19.195,1.3922,.59806001,.79414999,1.9389,4.3298001,877.96002,291.23999,0,0,0,0,0,0,10,50,0,0,0,0,0,0,0,0,0,0,0,0,0,0,0,0,0
245,Barletta,Italy,800,0,41.317001,16.283001,0,0,1,0,1,0,0,0,7,40.219002,0,0,0,0,0,0,0,0,.94,0,3,0,4000,3067.8999,3253,427.64999,2313.7,1413.1,837.20001,10.687,1.5935,.59276003,1.0008,1.9151,5.8596001,837.20001,66.619003,0,0,0,0,1,10,10,10,0,0,0,0,0,0,0,0,0,0,1,10,0,0,0,0,0
246,Bassano,Italy,800,0,45.77,11.73,0,0,0,1,0,0,0,0,119,350.79999,0,0,0,0,0,0,0,0,.98100001,0,2,0,4000,3745.8,3939.1001,429.45999,2973.5,1981.7,995.44,31.257999,1.6283,.52068001,1.1077,.99233001,2.3429999,995.44,88.459,0,0,0,0,1,30,10,30,0,0,0,0,0,0,0,0,0,0,1,30,0,0,1,0,0
247,Benevento (Benevent),Italy,800,0,41.132999,14.75,0,0,0,1,1,0,0,0,119,108.85,0,1,1,0,0,0,0,0,.61199999,0,6,0,4000,3208.6001,3387.5,266.10001,2464.7,1583.2,693.02002,33.540001,2.1124001,.59109002,1.5213,1.1257,3.6910999,693.02002,64.375999,0,0,0,0,1,50,10,50,0,0,0,0,0,0,0,0,0,0,1,50,0,0,0,0,0
248,Bergamo,Italy,800,0,45.682999,9.717,0,0,0,0,1,0,0,0,243,141.49001,1,0,0,0,0,0,0,0,.98000002,0,2,0,4000,3935.6001,4122.7998,514.70001,3171.8,2197.6001,883.91998,34.308998,1.4946001,.51933002,.97522998,.59077001,1.1503,975.06,144.71001,0,0,0,0,0,0,10,30,0,0,0,0,0,0,0,0,0,0,0,0,0,0,1,0,0
249,Bisceglie,Italy,800,0,41.233002,16.5,0,0,1,0,0,1,0,0,26,56.380001,0,0,0,0,0,0,0,0,.94,0,3,0,4000,3041.8,3227.2,453.34,2287.3999,1388.5,851.52002,10.384,1.6684999,.59492999,1.0735,1.9247,6.4942999,851.52002,40.398998,0,0,1,10,0,0,10,10,0,0,0,0,0,0,1,10,0,0,0,0,0,0,0,0,0
250,Bitonto,Italy,800,0,41.099998,16.683001,0,0,0,0,1,0,0,0,122,61.136002,0,0,0,0,0,0,0,0,.92067999,0,3,0,4000,3017.6001,3202.8,475.45999,2263.6001,1368.3,860.34998,13.896,1.9267,.59744,1.3293,.68270999,1.693,860.34998,19.195,1,10,0,0,0,0,10,10,0,0,1,10,0,0,0,0,0,0,0,0,0,0,0,0,0
251,Bologna,Italy,800,0,44.483002,11.333,0,0,0,0,1,0,0,0,155,77.002998,1,0,0,0,0,0,0,0,.92199999,0,2,0,4000,3715.3,3901.3,308.84,2954.6001,1996.5,849.66998,47.256001,1.5973001,.53762001,1.0597,.61180001,1.2567,849.66998,112.14,0,0,0,0,0,0,10,30,0,0,0,0,0,0,0,0,0,0,0,0,0,0,1,0,0
252,Brescia,Italy,800,0,45.549999,10.25,0,0,0,1,1,0,0,0,394,236.78,1,0,0,0,0,0,0,0,.74199998,0,2,0,4000,3877.1001,4065.1001,469.39001,3112.2,2136.8999,915.40002,53.110001,1.6436,.52147001,1.1222,.99013001,2.3563001,958.71002,84.211998,0,0,0,0,1,30,10,30,0,0,0,0,0,0,0,0,0,0,1,30,0,0,1,0,0
253,Cagliari,Italy,800,0,39.216999,9.1169996,0,0,1,0,1,0,0,0,27,28.551001,1,0,0,0,0,0,0,0,.92799997,0,4,0,4000,3696.5,3847.3999,475.17999,3004,2217.8999,290.64001,177.42999,1.3094,.66108,.64827001,2.0650001,3.0297999,290.64001,475.17999,0,0,0,0,0,0,10,50,0,0,0,0,0,0,0,0,0,0,0,0,0,0,1,0,0
254,Calatafimi,Italy,800,0,37.917,12.867,0,0,0,0,0,0,0,0,300,149.39,0,0,0,0,0,0,0,0,.57949001,0,4,0,4000,3255.8999,3408.8999,434.47,2565.1001,1820.9,323.44,10.91,1.5343,.67185998,.86242998,.7597,1.0737,323.44,59.740002,0,0,0,0,1,10,10,10,0,0,0,0,0,0,0,0,0,0,1,10,0,0,1,0,0
255,Caltagirone,Italy,800,0,37.233002,14.517,0,0,0,0,0,0,0,0,499,91.612,1,0,0,0,0,0,0,0,.48717999,0,4,0,4000,3057.7,3211,554.19,2369.5,1655.4,428.07001,23.247,1.3688,.64626002,.72250003,.73387998,.89478999,485.42999,160.12,0,0,0,0,0,0,10,10,0,0,0,0,0,0,0,0,0,0,0,0,0,0,1,0,0
256,Caltanisetta,Italy,800,0,37.483002,14.067,0,0,0,0,0,0,0,0,445,96.132004,0,0,0,0,0,0,0,0,.48394001,0,4,0,4000,3114.2,3267.8,510.57999,2424.3,1698.5,397.63,24.292999,1.4234999,.65061998,.77292001,.73794001,.95968002,439.35001,104.23,0,0,0,0,0,0,10,10,0,0,0,0,0,0,0,0,0,0,0,0,0,0,1,0,0
257,Canicatti,Italy,800,0,37.349998,13.85,0,0,0,0,0,0,0,0,454,76.556999,0,0,0,0,0,0,0,0,.48988,0,4,0,4000,3131.8,3283.8999,516.27002,2445.2,1725.4,369.44,7.7591,1.423,.65692002,.76612002,.74441999,.95104003,412.95001,98.982002,0,0,0,0,1,10,10,10,0,0,0,0,0,0,0,0,0,0,1,10,0,0,1,0,0
258,Carmagnole,Italy,800,0,44.849998,7.717,0,0,0,0,0,1,0,0,240,14.76,0,0,0,0,0,0,0,0,.83099997,0,6,0,4000,4090.3,4268.2002,620.73999,3341.2,2399.6001,672.28998,22.757,1.348,.53301001,.815,.60521001,.96232998,901.09998,334.67999,0,0,0,0,0,0,28,12,0,0,0,0,0,0,0,0,0,0,0,0,0,0,1,0,0
259,Casale,Italy,800,0,45.132999,8.4499998,0,0,0,1,0,0,0,0,111,38.405998,0,0,0,0,0,0,0,0,.94800001,0,2,0,4000,4031.8999,4213.1001,571.21997,3277.5,2324.7,745.60999,21.188999,1.38,.52758002,.85238999,.99699003,1.7981,935.15002,286.06,0,0,0,0,0,0,10,30,0,0,0,0,0,0,0,0,0,0,0,0,0,0,1,0,0
260,Castellammare,Italy,800,0,38.016998,12.883,0,0,1,1,0,1,0,0,94,183.59,1,0,0,0,0,0,0,0,.57962,0,4,0,4000,3258.8999,3412.6001,423.76999,2566.5,1818,328.73001,10.91,1.5527,.66868001,.88405001,2.1025,5.0532999,328.73001,55.618999,0,0,0,0,1,10,10,10,0,0,0,0,0,0,0,0,0,0,1,10,0,0,1,0,0
261,Castelvetrano,Italy,800,0,37.682999,12.783,0,0,0,0,0,0,0,0,184,74.021004,0,0,0,0,0,0,0,0,.57949001,0,4,0,4000,3255.8,3406.8999,459.66,2569.2,1835.3,304.20001,14.048,1.478,.68202001,.79597998,.7705,.98703003,304.97,81.186996,0,0,0,0,1,10,10,10,0,0,0,0,0,0,0,0,0,0,1,10,0,0,1,0,0
262,Castroreale,Italy,800,0,38.099998,15.2,0,0,0,0,0,0,0,0,253,304.95999,0,0,0,0,0,0,0,0,.65318,0,4,0,4000,3023.6001,3185.1001,510.29001,2317.8,1562.1,539.67999,12.376,1.4057,.63058001,.77511001,.71787,.96161002,576.42999,203.75,0,0,0,0,0,0,10,10,0,0,0,0,0,0,0,0,0,0,0,0,0,0,1,0,0
263,Catania,Italy,800,0,37.5,15.1,0,0,1,0,1,0,0,0,0,139.7,0,0,0,0,0,0,0,0,.57262999,0,4,0,4000,3008.7,3165.8,557.98999,2313,1586,498.85001,15.068,1.3649,.63742,.72745001,2.0406001,4.0415001,553,203.89,0,0,0,0,0,0,10,10,0,0,0,0,0,0,0,0,0,0,0,0,0,0,1,0,0
264,Catanzaro,Italy,800,0,38.900002,16.583,0,0,0,0,0,0,0,0,234,189.42999,1,0,0,0,0,0,0,0,.81292999,0,4,0,4000,2919.6001,3091.1001,559.31,2193.8999,1396.4,715.44,56.342999,1.4008,.62163001,.77912998,.70998001,.96746999,747.90002,239.67,0,0,0,0,0,0,10,10,0,0,0,0,0,0,0,0,0,0,0,0,0,0,1,0,0
265,Cava di Tirreni,Italy,800,0,40.700001,14.7,0,0,0,0,0,1,0,0,201,209.38,1,0,0,0,0,0,0,0,.64399999,0,4,0,4000,3192.6001,3368.8,279.19,2453.8999,1589,657.94,9.1631002,2.2888,.59723997,1.6914999,.68037999,2.1599,657.94,52.021999,0,0,0,0,1,50,10,50,0,0,0,0,0,0,0,0,0,0,1,50,0,0,0,0,0
266,Chieti,Italy,800,0,42.349998,14.167,0,0,0,0,0,1,0,0,248,77.192001,1,0,0,0,0,0,0,0,.92400002,0,4,0,4000,3327.1001,3510.8999,194.36,2573.1001,1653.4,749.63,26.725,1.6976,.57288003,1.1247,.65280998,1.3814,749.63,164.28999,0,0,0,0,0,0,10,50,0,0,0,0,0,0,0,0,0,0,0,0,0,0,1,0,0
267,Chioggia,Italy,800,0,45.226002,12.289,0,0,1,1,0,0,0,0,0,.80554998,1,0,0,0,0,0,0,0,.98900002,0,2,0,4000,3662.3999,3854.7,362.72,2891.7,1907.6,949.95001,23.271999,1.5114,.52895999,.98247999,1.6781,4.0706,949.95001,145.61,0,0,0,0,0,0,10,30,0,0,0,0,0,0,0,0,0,0,0,0,0,0,1,0,0
268,Chivasso,Italy,800,0,45.182999,7.8829999,0,0,0,1,0,1,0,0,185,70.188004,0,0,0,0,0,0,0,0,.87,0,2,0,4000,4090.8,4270.7998,625.59998,3338.3,2388.1001,712.38,27.427,1.3631001,.52766001,.83547997,.99611998,1.7573,930.94,343.17999,0,0,0,0,0,0,28,12,0,0,0,0,0,0,0,0,0,0,0,0,0,0,1,0,0
269,Comiso,Italy,800,0,36.932999,14.6,0,0,0,0,0,0,0,0,436,163.27,0,0,0,0,0,0,0,0,.42359,0,4,0,4000,3037.5,3189,587.40002,2354.1001,1654.3,423.17001,8.0857,1.3414,.64793998,.69344997,.73583001,.85781002,492.29001,187.82001,0,0,0,0,0,0,10,10,0,0,0,0,0,0,0,0,0,0,0,0,0,0,1,0,0
270,Como,Italy,800,0,45.783001,9.0830002,0,0,0,1,1,0,0,0,290,172.05,1,0,0,0,0,0,0,0,.99299997,0,6,0,4000,4003.3999,4189.3999,568.58002,3241.3,2269.6001,845.29999,30.506001,1.4292001,.51782,.91139001,.98141003,1.9187,993.20001,216.8,0,0,0,0,0,0,10,30,0,0,0,0,0,0,0,0,0,0,0,0,0,0,1,0,0
271,Corato,Italy,800,0,41.150002,16.417,0,0,0,0,0,1,0,0,219,94.565002,0,0,0,0,0,0,0,0,.94,0,3,0,4000,3045.5,3230.1001,446.03,2292.3999,1397.3,839.33002,12.34,1.6389,.59548998,1.0434999,.68023998,1.3101,839.33002,47.919998,0,0,1,10,0,0,10,10,0,0,0,0,0,0,1,10,0,0,0,0,0,0,0,0,0
272,Corleone,Italy,800,0,37.817001,13.3,0,0,0,0,0,0,0,0,670,231.5,0,0,0,0,0,0,0,0,.55593997,0,4,0,4000,3207.3999,3361,452.09,2516,1775.6,354.09,31.985001,1.6573,.66193998,.99532998,.74931002,1.2524,364.70999,33.419998,0,0,1,10,0,0,10,10,0,0,0,0,0,0,1,10,0,0,0,0,0,0,1,0,0
273,Cosenza,Italy,800,0,39.299999,16.25,0,0,0,0,0,1,0,0,229,209.42999,0,1,0,0,0,0,0,0,.889,0,4,0,4000,2971.3,3144.2,504.73999,2241.8999,1427.1,708.40997,56.342999,1.4446,.6164,.82818002,.70362997,1.0299,728.02002,206.39999,0,0,0,0,0,0,10,10,0,0,0,0,0,0,0,0,0,0,0,0,0,0,1,0,0
274,Crema,Italy,800,0,45.367001,9.6829996,0,0,0,1,0,0,0,0,77,10.488,1,0,0,0,0,0,0,0,.93099999,0,2,0,4000,3923.2,4108.8999,490.79001,3162,2195,856.29999,20.778,1.4875,.52364999,.96381003,.99265999,2.0341001,941.42999,147.22,0,0,0,0,0,0,10,30,0,0,0,0,0,0,0,0,0,0,0,0,0,0,1,0,0
275,Cremona,Italy,800,0,45.117001,10.033,0,0,0,0,1,0,0,0,39,5.4471002,1,0,0,0,0,0,0,0,.89300001,0,2,0,4000,3875.8999,4061.3,444.95999,3115.3,2151.5,865.35999,41.553001,1.5493,.52732998,1.022,.59978998,1.2061,912.03003,113.87,0,0,0,0,0,0,10,30,0,0,0,0,0,0,0,0,0,0,0,0,0,0,1,0,0
276,Ccuneo,Italy,800,0,44.382999,7.533,0,0,0,0,0,0,0,0,553,121.95,0,0,0,0,0,0,0,0,.77100003,0,6,0,4000,4086.2,4261.2998,614.46997,3342,2412.8,617.76001,28.273001,1.3279999,.54082,.78714001,.61378998,.93066001,864.15997,334.67999,0,0,0,0,0,0,28,12,0,0,0,0,0,0,0,0,0,0,0,0,0,0,1,0,0
277,Enna (Kasr Yannik),Italy,800,0,37.567001,14.267,0,0,0,0,0,1,0,0,804,114.91,0,0,0,0,0,0,0,0,.54412001,0,4,0,4000,3097.1001,3252,509.54999,2404.7,1674.8,421.63,13.851,1.4172,.64604002,.77112001,.73328,.95710999,462.98001,116.51,0,0,0,0,0,0,10,10,0,0,0,0,0,0,0,0,0,0,0,0,0,0,1,0,0
278,Faenza,Italy,800,0,44.283001,11.883,0,0,0,0,1,0,0,0,35,53.541,1,0,0,0,0,0,0,0,.97399998,0,2,0,4000,3651.1001,3837.8,267.48001,2889.8,1932.5,838.95001,20.023001,1.5469,.54122001,1.0057,.61609,1.1986001,838.95001,160.92999,0,0,0,0,0,0,10,30,0,0,0,0,0,0,0,0,0,0,0,0,0,0,0,0,0
279,Ferrara,Italy,800,0,44.833,11.583,0,0,0,1,0,0,0,0,9,1.9507,1,0,0,0,0,0,0,0,.98900002,0,2,0,4000,3709.3999,3897.8999,334.39999,2944.8,1976.1,891.59998,47.256001,1.6385,.53302002,1.1055,1.0134,2.3494999,891.59998,93.549004,0,0,0,0,1,30,10,30,0,0,0,0,0,0,0,0,0,0,1,30,0,0,0,0,0
280,Firenze,Italy,800,0,43.766998,11.25,0,0,0,1,1,0,0,0,50,118.11,1,0,0,0,0,0,0,0,.70999998,0,4,0,4000,3686.5,3868.8,245.48,2932.3999,1993.4,771.66998,20.572001,1.5362999,.54807001,.98826998,1.0382,2.1255,771.66998,185.62,0,0,0,0,0,0,10,30,0,0,0,0,0,0,0,0,0,0,0,0,0,0,1,0,0
281,Forli,Italy,800,0,44.223999,12.053,0,0,0,1,0,1,0,0,29,40.922001,1,0,0,0,0,0,0,0,.94400001,0,2,0,4000,3631.3999,3818.3,256.89001,2869.8999,1912.7,836.83002,20.023001,1.5394,.54233998,.99703002,1.0308,2.1508,836.83002,177.95,0,0,0,0,0,0,10,30,0,0,0,0,0,0,0,0,0,0,0,0,0,0,0,0,0
282,Fossano,Italy,800,0,44.549999,7.717,0,0,0,0,0,0,0,0,357,34.626999,1,0,0,0,0,0,0,0,.83099997,0,6,0,4000,4075.5,4252,604.27002,3329,2394.6001,645.39001,10.435,1.3380001,.53766,.80036998,.61035001,.9461,890.09003,346.01001,0,0,0,0,0,0,28,12,0,0,0,0,0,0,0,0,0,0,0,0,0,0,1,0,0
283,Francavilla,Italy,800,0,40.533001,17.583,0,0,0,0,0,0,0,0,140,36.655998,0,0,0,0,0,0,0,0,.898,0,3,0,4000,2900.5,3085.7,586.57001,2147.8999,1269,905.40002,33.175999,1.4523,.60995001,.84239,.69787002,1.0496,917.04999,103.33,0,0,0,0,0,0,10,10,0,0,0,0,0,0,0,0,0,0,0,0,0,0,0,0,0
284,Gaeta,Italy,800,0,41.200001,13.583,0,0,1,0,0,1,0,0,0,151.89,0,0,0,0,0,0,0,0,.99199998,0,4,0,4000,3328.3,3503.7,144.09,2589.5,1713.5,610.72998,48.747002,2.0727999,.59044999,1.4823999,1.8803,8.3181,610.72998,84.632004,0,0,0,0,1,50,10,50,0,0,0,0,0,0,0,0,0,0,1,50,0,0,0,0,0
285,Gallipoli,Italy,800,0,40.056,17.976,0,0,1,0,0,1,0,0,0,25.921,0,0,0,0,0,0,0,0,.93300003,0,3,0,4000,2837.5,3021.3999,643.40002,2088,1227.4,856.71002,40.530998,1.4025,.61848998,.78397,2.0236001,4.4685001,936.90002,169.55,0,0,0,0,0,0,10,10,0,0,0,0,0,0,0,0,0,0,0,0,0,0,1,0,0
286,Genova,Italy,800,0,44.417,8.9499998,0,0,1,0,0,1,0,0,105,183.35001,1,0,0,0,0,0,0,0,.84631002,0,6,0,4000,3946.7,4125.7998,480.01001,3196.3999,2257,725.08002,52.414001,1.386,.53777999,.84821999,1.6855,3.4138,847.65002,254.64,0,0,0,0,0,0,10,30,0,0,0,0,0,0,0,0,0,0,0,0,0,0,1,0,0
287,Gorizia,Italy,800,0,45.950001,13.633,0,0,0,0,0,1,0,0,93,166.31,1,0,0,0,0,0,0,0,.96899998,0,2,0,4000,3575,3774.7,457.5,2794.1001,1782.1,1068,36.493999,1.3637,.52376002,.83995998,.59746999,1.0074,1068,297.81,0,0,0,0,0,0,10,30,0,0,0,0,0,0,0,0,0,0,0,0,0,0,1,0,0
288,Gravina,Italy,800,0,40.817001,16.417,0,0,0,0,0,0,0,0,379,57.749001,1,0,0,0,0,0,0,0,.94800001,0,4,0,4000,3028.7,3211.3999,453.82999,2279.2,1397.4,819.81,14.473,1.6035,.59944999,1.0041,.68471998,1.2588,819.81,58.182999,0,0,0,0,1,10,10,10,0,0,0,0,0,0,0,0,0,0,1,10,0,0,0,0,0
289,Lanciano,Italy,800,0,42.233002,14.383,0,0,0,0,0,1,0,0,227,75.644997,1,0,0,0,0,0,0,0,.92400002,0,4,0,4000,3300.3999,3484.2,214.53,2546.5,1629.1,753.23999,26.725,1.7,.57495999,1.125,.65530002,1.3877,753.23999,151.72,0,0,0,0,0,0,10,50,0,0,0,0,0,0,0,0,0,0,0,0,0,0,1,0,0
290,Lecce,Italy,800,0,40.382999,18.183001,0,0,0,0,0,1,0,0,41,12.997,1,0,0,0,0,0,0,0,.96499997,0,3,0,4000,2834.5,3021,655.21997,2080,1203,879.59003,40.530998,1.4024,.61680001,.78564,.70631999,.97618997,970.71002,168.12,0,0,0,0,0,0,10,10,0,0,0,0,0,0,0,0,0,0,0,0,0,0,1,0,0
291,Leonforte,Italy,800,0,37.632999,14.383,0,0,0,0,0,0,0,0,482,164.11,0,0,0,0,0,0,0,0,.54412001,0,4,0,4000,3088.2,3243.8999,508.44,2394.3,1661.5,435.44,13.131,1.4147,.64366001,.77100998,.73087001,.95682001,476.22,124.29,0,0,0,0,0,0,10,10,0,0,0,0,0,0,0,0,0,0,0,0,0,0,1,0,0
292,Licata,Italy,800,0,37.099998,13.933,0,0,1,1,0,1,0,0,48,86.762001,0,0,0,0,0,0,0,0,.48988,0,4,0,4000,3113.7,3264.3,544.71002,2430.8,1722.6,363.25,26.014999,1.3851,.65846002,.72667003,2.0778999,4.0275998,418.76999,126.74,0,0,0,0,0,0,10,10,0,0,0,0,0,0,0,0,0,0,0,0,0,0,1,0,0
293,Livorno,Italy,800,0,43.549999,10.317,0,0,1,0,0,0,0,0,10,76.401001,1,0,0,0,0,0,0,0,.94999999,0,4,0,4000,3767.5,3945.8999,300.42001,3019.3999,2093,739.64001,19.780001,1.4615999,.55111003,.91049999,1.7347,3.7995,739.64001,221.23,0,0,0,0,0,0,10,30,0,0,0,0,0,0,0,0,0,0,0,0,0,0,1,0,0
294,Lodi,Italy,800,0,45.317001,9.5,0,0,0,1,1,0,0,0,68,6.0191998,0,0,0,0,0,0,0,0,.99699998,0,2,0,4000,3938.3,4123.2002,499.73999,3178.2,2213.6001,838.39001,20.778,1.4612,.52433002,.93691999,.99344999,1.9785,937.62,167.60001,0,0,0,0,0,0,10,30,0,0,0,0,0,0,0,0,0,0,0,0,0,0,1,0,0
295,Lucca,Italy,800,0,43.833,10.483,0,0,0,1,1,0,0,0,13,168.64999,1,0,0,0,0,0,0,0,.94999999,0,4,0,4000,3765.6001,3945.8999,306.45001,3014.2,2079.2,770.67999,16.400999,1.4856,.5467,.93893999,1.0338,2.0114,770.67999,186.41,0,0,0,0,0,0,10,30,0,0,0,0,0,0,0,0,0,0,0,0,0,0,1,0,0
296,Llucera,Italy,800,0,41.5,15.333,0,0,0,0,1,0,0,0,175,53.133999,1,0,0,0,0,0,0,0,.97399998,0,4,0,4000,3170,3352.8999,320.22,2418.8999,1519.4,767.45001,20.110001,1.6746,.58704001,1.0875,.66965002,1.3576,767.45001,140.21001,0,0,0,0,0,0,10,50,0,0,0,0,0,0,0,0,0,0,0,0,0,0,0,0,0
297,Macerata,Italy,800,0,43.299999,13.45,0,0,0,0,0,0,0,0,269,48.313,0,0,0,0,0,0,0,0,.98100001,0,4,0,4000,3446.7,3633.1001,186.37,2687,1743.8,796.28998,36.159,1.5905,.55795997,1.0325,.63565999,1.2477,796.28998,186.37,0,0,0,0,0,0,10,50,0,0,0,0,0,0,0,0,0,0,0,0,0,0,1,0,0
298,Maddaloni,Italy,800,0,41.033001,14.383,0,0,0,0,0,1,0,0,50,118.9,0,0,0,0,0,0,0,0,.963,0,4,0,4000,3240.3999,3417.5,231.56,2499.5,1624.3,655.95001,14.836,3.2829001,.59245998,2.6903999,.67474997,3.4828999,655.95001,25.98,0,0,1,50,0,0,10,50,0,0,0,0,0,0,1,50,0,0,0,0,0,0,0,0,0
299,Mantua,Italy,800,0,45.150002,10.8,0,0,0,1,0,1,0,0,16,5.0374999,0,0,0,0,0,0,0,0,.98500001,0,2,0,4000,3802.3,3990,400.70001,3038.3999,2068,916.65002,39.640999,2.0520999,.52753001,1.5246,1.0019,3.1724,916.65002,39.640999,0,0,1,30,0,0,10,30,0,0,0,0,0,0,1,30,0,0,0,0,0,0,1,0,0
300,Marsala,Italy,800,0,37.799999,12.433,0,0,1,0,1,0,0,0,5,26.341,0,0,0,0,0,0,0,0,.57949001,0,4,0,4000,3296.8,3447.7,445.75,2610,1871.4,273.25,24.556,1.4555,.69196999,.76356,2.168,4.1290002,273.25,110.26,0,0,0,0,0,0,10,10,0,0,0,0,0,0,0,0,0,0,0,0,0,0,1,0,0
301,Martina Franca,Italy,800,0,40.700001,17.333,0,0,0,0,0,0,0,0,392,50.07,0,0,0,0,0,0,0,0,.94499999,0,3,0,4000,2933.6001,3118.8999,555.15997,2180.5,1296.3,894.79999,25.902,1.5075999,.60617,.90148002,.69330001,1.127,900.67999,70.352997,0,0,0,0,1,10,10,10,0,0,0,0,0,0,0,0,0,0,1,10,0,0,0,0,0
302,Mascali,Italy,800,0,37.75,15.2,0,0,0,0,0,1,0,0,2,244.61,0,0,0,0,0,0,0,0,.57262999,0,4,0,4000,3008.8,3167.8999,541.20001,2308.5,1569.4,520.95001,14.361,1.3789999,.63428003,.74469,.72193998,.92299998,568.32001,207.61,0,0,0,0,0,0,10,10,0,0,0,0,0,0,0,0,0,0,0,0,0,0,1,0,0
303,Matera,Italy,800,0,40.667,16.6,0,0,0,0,0,0,0,0,389,108.57,0,0,0,0,0,0,0,0,.90499997,0,4,0,4000,3003.3999,3185.8999,477.44,2254.7,1377.6,828.44,16.945999,1.5901,.60209,.98795998,.68790001,1.2388999,828.44,56.393002,0,0,0,0,1,10,10,10,0,0,0,0,0,0,0,0,0,0,1,10,0,0,0,0,0
304,Mazzarino,Italy,800,0,37.299999,14.217,0,0,0,0,0,0,0,0,472,75.848,0,0,0,0,0,0,0,0,.48394001,0,4,0,4000,3091.5,3244.3999,534.59003,2403.8,1686.3,401.95999,18.798,1.3914,.65021002,.74115998,.73769999,.91872001,453.04999,129.67,0,0,0,0,0,0,10,10,0,0,0,0,0,0,0,0,0,0,0,0,0,0,1,0,0
305,Melfi,Italy,800,0,41,15.65,0,0,0,0,0,0,0,0,522,198.24001,0,0,0,0,0,0,0,0,.99599999,0,4,0,4000,3113.3,3294.5,366.04999,2366.1001,1482.9,760.52002,49.066002,1.6371,.59439999,1.0427001,.67821997,1.3037,760.52002,134.32001,0,0,0,0,0,0,10,10,0,0,0,0,0,0,0,0,0,0,0,0,0,0,0,0,0
306,Messina,Italy,800,0,38.182999,15.567,0,0,1,0,0,1,0,0,1,156.84,0,0,0,0,0,0,0,0,.69299001,0,4,0,4000,2989.3,3152.6001,528.90997,2280.2,1520.1,579.41998,32.285999,1.3949,.62829,.76656997,2.0218,4.2937999,618.46997,245.00999,0,0,0,0,0,0,10,10,0,0,0,0,0,0,0,0,0,0,0,0,0,0,1,0,0
307,Milano,Italy,800,0,45.466999,9.1999998,0,0,0,1,1,0,0,0,122,16.143,0,1,0,0,0,0,0,0,.99699998,0,2,0,4000,3975.5,4160.2998,534.48999,3215.3999,2249.6001,827.91998,14.382,1.4333,.52218997,.91105998,.98918003,1.9219,957.66998,200.41,0,0,0,0,0,0,10,30,0,0,0,0,0,0,0,0,0,0,0,0,0,0,1,0,0
308,Modena,Italy,800,0,44.667,10.917,0,0,0,0,1,0,0,0,34,9.2174997,1,0,0,0,0,0,0,0,.97600001,0,2,0,4000,3765.3,3951.1001,348.35001,3004.8,2045.1,865.27002,36.042999,1.66,.53443003,1.1256,.60807002,1.3293999,865.27002,85.718002,0,0,0,0,1,30,10,30,0,0,0,0,0,0,0,0,0,0,1,30,0,0,1,0,0
309,Modica,Italy,800,0,36.867001,14.767,0,0,0,0,0,0,0,0,398,110.87,0,0,0,0,0,0,0,0,.42359,0,4,0,4000,3017.6001,3169.1001,600.94,2334.2,1637.6,438.60001,6.9864001,1.3316,.64618999,.68537003,.73422003,.84761,511.07001,206.19,0,0,0,0,0,0,10,10,0,0,0,0,0,0,0,0,0,0,0,0,0,0,1,0,0
310,Molfetta,Italy,800,0,41.200001,16.6,0,0,1,0,0,1,0,0,20,54.144001,1,0,0,0,0,0,0,0,.92067999,0,3,0,4000,3030.5,3216.1001,464.84,2275.8999,1377.3,858.88,9.3155003,1.7588,.59581,1.163,1.9287,7.2316999,858.88,28.816,0,0,1,10,0,0,10,10,0,0,0,0,0,0,1,10,0,0,0,0,0,0,0,0,0
311,Mondovi,Italy,800,0,44.382999,7.8169999,0,0,0,0,0,0,0,0,463,160.92999,1,0,0,0,0,0,0,0,.77100003,0,6,0,4000,4057.2,4233.1001,585.64001,3311.8999,2380.8999,637.26001,21.808001,1.3354,.54008001,.79528999,.61307001,.94088,873.85999,363.73999,0,0,0,0,0,0,10,12,0,0,0,0,0,0,0,0,0,0,0,0,0,0,1,0,0
312,Monopoli,Italy,800,0,40.950001,17.299999,0,0,1,0,1,0,0,0,11,103.29,1,0,0,0,0,0,0,0,.94499999,0,3,0,4000,2949.5,3136.1001,546.26001,2193.7,1299.3,909.39001,22.687,1.5533,.60308999,.95017999,1.961,5.6585002,910.73999,53.636002,0,0,0,0,1,10,10,10,0,0,0,0,0,0,0,0,0,0,1,10,0,0,0,0,0
313,Monza,Italy,800,0,45.583,9.2670002,0,0,0,0,0,0,0,0,161,35.083,0,0,0,0,0,0,0,0,.99299997,0,2,0,4000,3974.3999,4159.8999,538.09003,3213.1001,2244.3999,842.14001,14.382,1.441,.52063,.92040002,.59204,1.0863,968.71002,193.13,0,0,0,0,0,0,10,30,0,0,0,0,0,0,0,0,0,0,0,0,0,0,1,0,0
314,Napoli,Italy,800,0,40.833,14.25,50,50,1,0,1,0,0,0,9,84.663002,1,0,0,0,0,0,0,0,.67900002,0,4,0,4000,3243.7,3419.2,228.61,2505.8,1638.9,630.47998,11.193,1.3606,.59559,.76504999,1.9026999,3.3517001,630.47998,228.61,0,0,0,0,0,0,10,50,0,0,0,0,0,0,0,0,0,0,0,0,0,0,0,0,0
315,Nicosia,Italy,800,0,37.75,14.4,0,0,0,0,0,0,0,0,638,154.91,1,0,0,0,0,0,0,0,.54412001,0,4,0,4000,3091,3247.6001,497.59,2395.1001,1656.7,444.32001,13.131,1.4251,.64186001,.78324002,.72895002,.97241002,481.04001,121.44,0,0,0,0,0,0,10,10,0,0,0,0,0,0,0,0,0,0,0,0,0,0,1,0,0
316,Noto,Italy,800,0,36.882999,15.067,0,0,0,0,0,0,0,0,75,156.28999,1,0,0,0,0,0,0,0,.42774001,0,4,0,4000,2986.8999,3139.5,614.58002,2301.8,1605,464.19,32.748001,1.3238,.64291,.68085998,.73119998,.84204,544.47998,231.78999,0,0,0,0,0,0,10,10,0,0,0,0,0,0,0,0,0,0,0,0,0,0,1,0,0
317,Novara,Italy,800,0,45.466999,8.6330004,0,0,0,0,1,0,0,0,153,18.253,1,0,0,0,0,0,0,0,.99699998,0,2,0,4000,4031.5,4214.7998,579.92999,3273.6001,2311.8999,787.40997,28.624001,1.3976001,.52243,.87514001,.59380001,1.0328,967.71997,263.85999,0,0,0,0,0,0,10,30,0,0,0,0,0,0,0,0,0,0,0,0,0,0,1,0,0
318,Orvieto,Italy,800,0,42.716999,12.117,0,0,0,1,0,1,0,0,179,139.64999,1,0,0,0,0,0,0,0,.98500001,0,6,0,4000,3547.8,3727.1001,97.787003,2799.8,1884.2,681.71002,32.731998,1.8221,.56537002,1.2568001,1.0700999,2.7084999,681.71002,97.787003,0,0,0,0,1,50,10,50,0,0,0,0,0,0,0,0,0,0,1,50,0,0,0,0,0
319,Otranto,Italy,800,0,40.150002,18.5,0,0,1,0,0,1,0,0,10,32.470001,1,0,0,0,0,0,0,0,.96499997,0,4,0,4000,2791.5,2977.8999,695.98999,2037.8,1169,844.39001,43.126999,1.3881,.62256998,.76556998,2.0434999,4.3572001,994.12,211.07001,0,0,0,0,0,0,10,10,0,0,0,0,0,0,0,0,0,0,0,0,0,0,1,0,0
320,Padova (Padua),Italy,800,0,45.417,11.883,0,0,0,1,1,0,0,0,12,3.5416,1,0,0,0,0,0,0,0,.991,0,2,0,4000,3712.2,3904.3,388.84,2941.8,1956.7,960.70001,39.377998,1.6036,.52556998,1.0779999,1.0013,2.2902999,960.70001,98.026001,0,0,0,0,1,30,10,30,0,0,0,0,0,0,0,0,0,0,1,30,0,0,1,0,0
321,Palermo (Balarm),Italy,800,0,38.117001,13.367,10,10,1,0,1,0,0,0,4,192.60001,0,0,0,0,0,0,0,0,.60342997,0,4,0,4000,3212.3,3368.1001,421.95999,2515.8999,1762.4,383.12,28.848,1.38,.65364999,.72631001,2.0631001,3.7925,383.17001,308.92999,0,0,0,0,0,0,10,50,0,0,0,0,0,0,0,0,0,0,0,0,0,0,1,0,0
322,Parma,Italy,800,0,44.799999,10.333,0,0,0,1,1,0,0,0,56,30.677,1,0,0,0,0,0,0,0,.95599997,0,2,0,4000,3829.8999,4014.6001,396.79001,3070.7,2112.3,867.81,31.309,1.5845,.53207999,1.0524,1.0086,2.2253001,876.56,103.06,0,0,0,0,0,0,10,30,0,0,0,0,0,0,0,0,0,0,0,0,0,0,1,0,0
323,Pavia,Italy,800,0,45.167,9.1669998,0,0,0,1,1,0,0,0,62,10.751,1,0,1,0,0,0,0,0,.99699998,0,2,0,4000,3962.8999,4146.2002,513.42999,3205.3999,2246.6001,801.20001,33.139999,1.4242001,.52651,.89765,.99653,1.8971,925.40997,206.03,0,0,0,0,0,0,10,30,0,0,0,0,0,0,0,0,0,0,0,0,0,0,1,0,0
324,Perugia,Italy,800,0,43.132999,12.367,0,0,0,0,0,1,0,0,411,119.37,1,0,0,0,0,0,0,0,.80599999,0,6,0,4000,3543.7,3726,134.28999,2790.5,1861,732.81,52.577999,1.686,.55896002,1.127,.63606,1.3483,732.81,134.28999,0,0,0,0,0,0,10,50,0,0,0,0,0,0,0,0,0,0,0,0,0,0,0,0,0
325,Piacenza,Italy,800,0,45.016998,9.6669998,0,0,0,1,1,0,0,0,70,25.264,1,0,0,0,0,0,0,0,.93099999,0,2,0,4000,3906,4090,462.64999,3147.7,2188.8999,828.56,37.984001,1.4747,.52864999,.94604999,1.0012,2.0014999,903.21002,155.38,0,0,0,0,0,0,10,30,0,0,0,0,0,0,0,0,0,0,0,0,0,0,1,0,0
326,Piazza Armerina,Italy,800,0,37.382999,14.367,0,0,0,0,0,0,0,0,723,122.55,0,0,0,0,0,0,0,0,.48394001,0,4,0,4000,3079.2,3233.1001,532.75,2389.3,1668.2,420.73999,18.798,1.3904001,.64682001,.74357998,.73426998,.92176002,470.72,137.08,0,0,0,0,0,0,10,10,0,0,0,0,0,0,0,0,0,0,0,0,0,0,1,0,0
327,Pisa,Italy,800,0,43.716999,10.383,0,0,0,1,1,0,0,0,2,60.158001,1,0,0,0,0,0,0,0,.94999999,0,4,0,4000,3770,3949.5,306.76001,3020.1001,2088.7,758.35999,16.400999,1.4723001,.54839998,.92392999,1.0364,1.9808,758.35999,201.45,0,0,0,0,0,0,10,30,0,0,0,0,0,0,0,0,0,0,0,0,0,0,1,0,0
328,Pistoia,Italy,800,0,43.917,10.9,0,0,0,1,1,0,0,0,64,206.62,1,0,0,0,0,0,0,0,.90100002,0,4,0,4000,3728.6001,3910.7,281.85001,2974.7,2034.3,783.39001,22.691,1.5221,.54552001,.97662997,1.0329,2.0932,783.39001,167.61,0,0,0,0,0,0,10,30,0,0,0,0,0,0,0,0,0,0,0,0,0,0,1,0,0
329,Polizzi Generosa,Italy,800,0,37.817001,14,0,0,0,0,0,0,0,0,775,371.89001,0,0,0,0,0,0,0,0,.54426998,0,4,0,4000,3135.1001,3290.8999,473.41,2440.1001,1699,412.48001,37.540001,1.482,.6469,.83512002,.73387003,1.0402,439.54001,77.281998,0,0,0,0,1,10,10,10,0,0,0,0,0,0,0,0,0,0,1,10,0,0,1,0,0
330,Prato,Italy,800,0,43.882999,11.1,0,0,0,0,0,1,0,0,63,186.53,0,0,0,0,0,0,0,0,.70999998,0,4,0,4000,3706.8999,3889.3,264.89001,2952.3999,2011.6,781.39001,20.572001,1.5315,.54627001,.98523003,.62129003,1.1727999,781.39001,171.91,0,0,0,0,0,0,10,30,0,0,0,0,0,0,0,0,0,0,0,0,0,0,1,0,0
331,Procida,Italy,800,0,40.766998,14.033,0,0,1,0,0,0,0,0,0,51.563,0,0,0,0,0,0,0,0,.67900002,0,4,0,4000,3262.7,3437.2,211.59,2526.7,1663.5,608.59998,25.334999,3.3501999,.59684998,2.7534001,1.9043,19.157,608.59998,25.334999,0,0,1,50,0,0,10,50,0,0,0,0,0,0,1,50,0,0,0,0,0,0,0,0,0
332,Putignano,Italy,800,0,40.849998,17.117001,0,0,0,0,0,0,0,0,348,62.014,0,0,0,0,0,0,0,0,.94499999,0,3,0,4000,2961.8,3147.2,528.78998,2208.1001,1319.4,887.28998,22.687,1.6123,.60301,1.0092,.68949002,1.2693,888.07001,42.335999,0,0,1,10,0,0,10,10,0,0,0,0,0,0,1,10,0,0,0,0,0,0,0,0,0
333,Ragusa (Raghusa),Italy,800,0,36.917,14.733,0,0,0,0,0,1,0,0,473,115.54,0,0,0,0,0,0,0,0,.42359,0,4,0,4000,3023.7,3175.5,594.20001,2339.7,1640.6,436.29001,6.9864001,1.3363,.64629,.69006002,.73426002,.85355002,506.72,199.3,0,0,0,0,0,0,10,10,0,0,0,0,0,0,0,0,0,0,0,0,0,0,1,0,0
334,Ravenna,Italy,800,0,44.417999,12.201,0,0,1,0,0,1,0,0,3,1.4278001,0,1,0,0,0,0,0,0,.94400001,0,2,0,4000,3627.3999,3815.7,275.84,2863.5,1900,862,27.437,1.5278,.53977001,.98800999,1.7115999,4.1877999,862,174.53999,0,0,0,0,0,0,10,30,0,0,0,0,0,0,0,0,0,0,0,0,0,0,0,0,0
335,Reggio nell Emilia,Italy,800,0,44.716999,10.6,0,0,0,0,1,0,0,0,46,28.166,1,0,0,0,0,0,0,0,.97600001,0,2,0,4000,3799.3,3984.3999,372.04999,3039.6001,2081.1001,868.52002,31.309,1.6289999,.53342998,1.0956,.60680002,1.2936,868.52002,91.413002,0,0,0,0,1,30,10,30,0,0,0,0,0,0,0,0,0,0,1,30,0,0,1,0,0
336,Rimini,Italy,800,0,44.063,12.581,0,0,1,0,1,0,0,0,4,28.49,1,0,0,0,0,0,0,0,.91939998,0,4,0,4000,3571.3999,3759,235.00999,2808.8999,1851.7,836.13,39.637001,1.5282,.54550999,.98272997,1.732,4.2940998,836.13,232.14,0,0,0,0,0,0,10,30,0,0,0,0,0,0,0,0,0,0,0,0,0,0,0,0,0
337,Roma,Italy,800,0,41.900002,12.483,50,50,0,1,1,0,0,0,19,27.327999,0,1,1,0,0,0,0,0,.73000002,0,4,0,4000,3471.7,3647.8,0,2730.6001,1838.1,612.73999,41.07,1.3535,.57944,.77405,1.0949,1.7902,612.73999,228.61,0,0,0,0,0,0,10,50,0,0,0,0,0,0,0,0,0,0,0,0,0,0,0,0,0
338,Salemi,Italy,800,0,37.817001,12.8,0,0,0,0,0,1,0,0,340,114.85,0,0,0,0,0,0,0,0,.57949001,0,4,0,4000,3259.2,3411.3,444.64999,2570.3,1830.4,312.19,13.363,1.502,.6771,.82488,.76528001,1.0245,312.19,71.311996,0,0,0,0,1,10,10,10,0,0,0,0,0,0,0,0,0,0,1,10,0,0,1,0,0
339,Salerno,Italy,800,0,40.682999,14.783,0,0,1,0,0,1,0,0,101,215.77,1,0,0,0,0,0,0,0,.64399999,0,4,0,4000,3183.7,3360,288.07999,2444.8,1580.2,663.34998,9.1631002,2.1408,.59751999,1.5433,1.9143,9.8648005,663.34998,61.18,0,0,0,0,1,50,10,50,0,0,0,0,0,0,0,0,0,0,1,50,0,0,0,0,0
340,Saluzzo,Italy,800,0,44.650002,7.4829998,0,0,0,0,0,1,0,0,356,141.39999,1,0,0,0,0,0,0,0,.58099997,0,6,0,4000,4104.2998,4280.7002,633.02002,3357.8999,2422.6001,638.98999,21.268,1.3361,.53671998,.79935998,.60922998,.94405001,868.42999,317.10001,0,0,0,0,0,0,28,12,0,0,0,0,0,0,0,0,0,0,0,0,0,0,1,0,0
341,San-Filippo di Mela,Italy,800,0,38.18,15.283,0,0,0,0,0,0,0,0,84,216.92,0,0,0,0,0,0,0,0,.65318,0,4,0,4000,3018.8999,3181.2,508.70999,2311.3999,1551.8,551.78003,12.376,1.4082,.62932003,.77884001,.7166,.96638,587.21997,212.74001,0,0,0,0,0,0,10,10,0,0,0,0,0,0,0,0,0,0,0,0,0,0,1,0,0
342,San-Severo,Italy,800,0,41.682999,15.383,0,0,0,0,0,0,0,0,81,24.131001,1,0,0,0,0,0,0,0,.97399998,0,3,0,4000,3174.3,3358.3999,323.73001,2421,1514.5,784.63,20.110001,1.6372,.58481002,1.0524,.66720003,1.3107001,784.63,155.55,0,0,0,0,0,0,10,50,0,0,0,0,0,0,0,0,0,0,0,0,0,0,0,0,0
343,Sarno,Italy,800,0,40.817001,14.617,0,0,0,0,1,0,0,0,181,284.69,1,0,0,0,0,0,0,0,.64399999,0,4,0,4000,3206.3999,3383,265.38,2466.7,1597.7,659.77002,15.696,2.5486,.59551001,1.9531,.67838001,2.5063,659.77002,41.207001,0,0,1,50,0,0,10,50,0,0,0,0,0,0,1,50,0,0,0,0,0,0,0,0,0
344,Sassari,Italy,800,0,40.727001,8.5600004,0,0,0,0,0,1,0,0,207,112.96,1,0,0,0,0,0,0,0,.84200001,0,4,0,4000,3816,3974.3999,454.81,3106.3999,2272.5,431.14001,177.42999,1.2903,.60692,.68333,.68687999,.82012999,467.84,454.81,0,0,0,0,0,0,10,50,0,0,0,0,0,0,0,0,0,0,0,0,0,0,1,0,0
345,Savigliano,Italy,800,0,44.632999,7.6669998,0,0,0,1,0,0,0,0,321,28.672001,0,0,0,0,0,0,0,0,.83099997,0,6,0,4000,4084.3999,4261.1001,613.40002,3337.3999,2401.3999,649.25,10.435,1.3394001,.53653997,.80290002,1.0109,1.6936001,887.65002,337.53,0,0,0,0,0,0,28,12,0,0,0,0,0,0,0,0,0,0,0,0,0,0,1,0,0
346,Savona,Italy,800,0,44.283001,8.5,0,0,1,0,1,0,0,0,0,106.78,1,0,0,0,0,0,0,0,.76300001,0,6,0,4000,3984.5,4161.7002,513.98999,3237.3,2304.3999,678.79999,52.414001,1.3577,.54040998,.81731999,1.6905,3.2945001,842.69,306.5,0,0,0,0,0,0,10,30,0,0,0,0,0,0,0,0,0,0,0,0,0,0,1,0,0
347,Scicli,Italy,800,0,36.783001,14.7,0,0,0,0,0,0,0,0,205,135.98,0,0,0,0,0,0,0,0,.42359,0,4,0,4000,3021.3,3172,606.64001,2339.8999,1647.6,428.04001,12.435,1.3273,.64776999,.67957002,.73582,.84021997,503.22,207.05,0,0,0,0,0,0,10,10,0,0,0,0,0,0,0,0,0,0,0,0,0,0,1,0,0
348,Sciacca,Italy,800,0,37.5,13.1,0,0,1,0,0,1,0,0,2,150.38,0,0,0,0,0,0,0,0,.55593997,0,4,0,4000,3215.5,3366.3999,482.66,2530.2,1803.9,313.85999,32.639,1.4769,.67524999,.80160999,2.1173999,4.5180998,333.92999,73.609001,0,0,0,0,1,10,10,10,0,0,0,0,0,0,0,0,0,0,1,10,0,0,1,0,0
349,Siena,Italy,800,0,43.317001,11.35,0,0,0,0,0,1,0,0,260,57.291,1,0,0,0,0,0,0,0,.792,0,4,0,4000,3653.8999,3834.2,199.38,2903.6001,1976.2,724.88,50.373001,1.556,.55520999,1.0008,.63132,1.1947,724.88,199.38,0,0,0,0,0,0,10,50,0,0,0,0,0,0,0,0,0,0,0,0,0,0,1,0,0
350,Siracusa (Sirkusa),Italy,800,0,37.067001,15.3,0,0,1,1,1,0,0,0,0,22.021999,1,0,1,0,0,0,0,0,.49632999,0,4,0,4000,2970.6001,3125.3999,609.08002,2281,1575.1,489.39999,18.409,1.3297,.63968998,.69002002,2.0513,3.8131001,570.77002,242.89,0,0,0,0,0,0,10,10,0,0,0,0,0,0,0,0,0,0,0,0,0,0,1,0,0
351,Spoleto,Italy,800,0,42.733002,12.733,0,0,0,0,1,0,0,0,369,236.67999,1,0,1,0,0,0,0,0,.99800003,0,6,0,4000,3488,3669.3,94.375,2737,1816.7,706.52002,59.125999,1.8626,.56551999,1.2970001,.64357001,1.5506999,706.52002,94.375,0,0,0,0,1,50,10,50,0,0,0,0,0,0,0,0,0,0,1,50,0,0,1,0,0
352,Taranto,Italy,800,0,40.476002,17.23,0,0,1,0,1,0,0,0,0,46.480999,1,0,0,0,0,0,0,0,.89170003,0,3,0,4000,2932.1001,3115.7,550.44,2182.1001,1308.2,871.41998,25.902,1.4923,.60797,.88431001,1.9777,5.1592999,879.90997,81.097,0,0,0,0,1,10,10,10,0,0,0,0,0,0,0,0,0,0,1,10,0,0,0,0,0
353,Terlizzi,Italy,800,0,41.132999,16.549999,0,0,0,0,0,0,0,0,178,73.711998,0,0,0,0,0,0,0,0,.92067999,0,3,0,4000,3031.8,3216.8,460.64999,2278.2,1382.8,850.08002,9.3155003,1.7165999,.59639001,1.1202,.68138999,1.4134001,850.08002,33.398998,0,0,1,10,0,0,10,10,0,0,0,0,0,0,1,10,0,0,0,0,0,0,0,0,0
354,Termini Imerese,Italy,800,0,37.983002,13.7,0,0,1,0,0,1,0,0,29,249.91,0,0,0,0,0,0,0,0,.54426998,0,4,0,4000,3172.6001,3328.5,446.23999,2476.6001,1728.8,398.14001,37.612,1.6193,.64967,.96959001,2.0544,5.7926998,412.42001,39.742001,0,0,1,10,0,0,10,10,0,0,0,0,0,0,1,10,0,0,0,0,0,0,1,0,0
